,UNITID,OPEID,opeid6,INSTNM,main,CITY,STABBR,ZIP,st_fips,RELAFFIL,LATITUDE,LONGITUDE,INSTURL,NPCURL,CONTROL,HIGHDEG,PREDDEG,DISTANCEONLY,HCM2,TUITFTE,INEXPFTE,NUM_PROGRAM,CLUSTER
0,100654,100200,1002,Alabama A & M University,1,Normal,AL,35762,Alabama,,34.7834,-86.5685,<li class='dropdown'>  <a href='https://www.aamu.edu/' target='_blank'>Main web page </a> </li>,galileo.aamu.edu/netpricecalculator/npcalc.htm,Public,Graduate degree,Predominantly bachelor's-degree granting,Not distance-education only,0,9063.0,7459.0,21,Cluster_3
1,100663,105200,1052,University of Alabama at Birmingham,1,Birmingham,AL,35294-0110,Alabama,,33.5022,-86.8092,<li class='dropdown'>  <a href='https://www.uab.edu' target='_blank'>Main web page </a> </li>,www.collegeportraits.org/AL/UAB/estimator/agree,Public,Graduate degree,Predominantly bachelor's-degree granting,Not distance-education only,0,9033.0,17208.0,66,Cluster_3
2,100690,2503400,25034,Amridge University,1,Montgomery,AL,36117-3553,Alabama,<li class='dropdown'> Religion: Churches of Christ</li>,32.3626,-86.174,<li class='dropdown'>  <a href='https://www.amridgeuniversity.edu' target='_blank'>Main web page </a> </li>,tcc.noellevitz.com/(S(miwoihs5stz5cpyifh4nczu0))/Amridge%20University/Freshman-Students,Private nonprofit,Graduate degree,Predominantly bachelor's-degree granting,Not distance-education only,0,12057.0,5123.0,8,Cluster_1
3,100706,105500,1055,University of Alabama in Huntsville,1,Huntsville,AL,35899,Alabama,,34.7228,-86.6384,<li class='dropdown'>  <a href='https://www.uah.edu' target='_blank'>Main web page </a> </li>,finaid.uah.edu/,Public,Graduate degree,Predominantly bachelor's-degree granting,Not distance-education only,0,8322.0,9352.0,18,Cluster_3
4,100724,100500,1005,Alabama State University,1,Montgomery,AL,36104-0271,Alabama,,32.3643,-86.2957,<li class='dropdown'>  <a href='https://www.alasu.edu/email/index.aspx' target='_blank'>Main web page </a> </li>,www.alasu.edu/cost-aid/forms/calculator/index.aspx/,Public,Graduate degree,Predominantly bachelor's-degree granting,Not distance-education only,0,7813.0,7393.0,16,Cluster_3
5,100751,105100,1051,The University of Alabama,1,Tuscaloosa,AL,35487-0166,Alabama,,33.2144,-87.5458,<li class='dropdown'>  <a href='https://www.ua.edu/' target='_blank'>Main web page </a> </li>,oira.ua.edu,Public,Graduate degree,Predominantly bachelor's-degree granting,Not distance-education only,0,12198.0,9817.0,25,Cluster_3
6,100760,100700,1007,Central Alabama Community College,1,Alexander City,AL,35010,Alabama,,32.9244,-85.9465,<li class='dropdown'>  <a href='https://www.cacc.edu' target='_blank'>Main web page </a> </li>,www.cacc.edu/graphics/netpricecalculator/npcalc.htm,Public,Associate degree,Predominantly associate's-degree granting,Not distance-education only,0,2371.0,5935.0,33,Cluster_2
7,100812,100800,1008,Athens State University,1,Athens,AL,35611,Alabama,,34.8056,-86.9651,<li class='dropdown'>  <a href='https://www.athens.edu' target='_blank'>Main web page </a> </li>,24.athens.edu/apex/prod8/f?p=174:1:3941357449598491,Public,Bachelor's degree,Predominantly bachelor's-degree granting,Not distance-education only,0,5094.0,6176.0,17,Cluster_3
8,100830,831000,8310,Auburn University at Montgomery,1,Montgomery,AL,36117-3596,Alabama,,32.3699,-86.1774,<li class='dropdown'>  <a href='https://www.aum.edu' target='_blank'>Main web page </a> </li>,www.aum.edu/admissions/financial-information/price-estimator-calculator,Public,Graduate degree,Predominantly bachelor's-degree granting,Not distance-education only,0,7625.0,6817.0,34,Cluster_3
9,100858,100900,1009,Auburn University,1,Auburn University,AL,36849,Alabama,,32.6002,-85.4924,<li class='dropdown'>  <a href='https://www.auburn.edu' target='_blank'>Main web page </a> </li>,www.auburn.edu/admissions/money-matters.html,Public,Graduate degree,Predominantly bachelor's-degree granting,Not distance-education only,0,13186.0,11324.0,22,Cluster_3
10,100937,101200,1012,Birmingham Southern College,1,Birmingham,AL,35254,Alabama,<li class='dropdown'> Religion: United Methodist</li>,33.5155,-86.8536,<li class='dropdown'>  <a href='https://www.bsc.edu/' target='_blank'>Main web page </a> </li>,www.bsc.edu/fp/np-calculator.cfm,Private nonprofit,Bachelor's degree,Predominantly bachelor's-degree granting,Not distance-education only,0,11928.0,9990.0,19,Cluster_1
11,101028,1218200,12182,Chattahoochee Valley Community College,1,Phenix City,AL,36869,Alabama,,32.4239,-85.0315,<li class='dropdown'>  <a href='https://www.cv.edu' target='_blank'>Main web page </a> </li>,external.cv.edu/npc/npcalc.htm,Public,Associate degree,Predominantly associate's-degree granting,Not distance-education only,0,2056.0,4459.0,21,Cluster_2
12,101073,1055400,10554,Concordia College Alabama,1,Selma,AL,36701,Alabama,<li class='dropdown'> Religion: Lutheran Church - Missouri Synod</li>,32.4223,-87.0242,<li class='dropdown'>  <a href='https://www.ccal.edu/' target='_blank'>Main web page </a> </li>,www.ccal.edu/netprice/netprice/,Private nonprofit,Bachelor's degree,Predominantly bachelor's-degree granting,Not distance-education only,0,6023.0,6652.0,6,Cluster_1
13,101116,1303906,13039,South University-Montgomery,0,Montgomery,AL,36116,Alabama,,32.3427,-86.2165,<li class='dropdown'>  <a href='https://www.southuniversity.edu' target='_blank'>Main web page </a> </li>,tcc.noellevitz.com/edmc/Transfer-Students?iframe=true&width=600&height=1000,Private for-profit,Graduate degree,Predominantly associate's-degree granting,Not distance-education only,0,14726.0,4728.0,12,Cluster_2
14,101143,101500,1015,Enterprise State Community College,1,Enterprise,AL,36330-1300,Alabama,,31.2975,-85.837,<li class='dropdown'>  <a href='https://www.escc.edu' target='_blank'>Main web page </a> </li>,www.escc.edu/NetPrice/npcalc.htm,Public,Associate degree,Predominantly associate's-degree granting,Not distance-education only,0,2129.0,5930.0,33,Cluster_2
15,101161,106000,1060,James H Faulkner State Community College,1,Bay Minette,AL,36507-2698,Alabama,,30.852,-87.7798,<li class='dropdown'>  <a href='https://www.faulknerstate.edu' target='_blank'>Main web page </a> </li>,www.faulknerstate.edu,Public,Associate degree,Predominantly associate's-degree granting,Not distance-education only,0,2187.0,4101.0,39,Cluster_2
16,101189,100300,1003,Faulkner University,1,Montgomery,AL,36109-3378,Alabama,<li class='dropdown'> Religion: Churches of Christ</li>,32.3842,-86.2164,<li class='dropdown'>  <a href='https://www.faulkner.edu' target='_blank'>Main web page </a> </li>,www.faulkner.edu/netprice/,Private nonprofit,Graduate degree,Predominantly bachelor's-degree granting,Not distance-education only,0,10997.0,5382.0,32,Cluster_1
17,101240,101700,1017,Gadsden State Community College,1,Gadsden,AL,35903,Alabama,,33.9919,-85.9913,<li class='dropdown'>  <a href='https://www.gadsdenstate.edu' target='_blank'>Main web page </a> </li>,www.gadsdenstate.edu/netpricecalculator/,Public,Associate degree,Predominantly associate's-degree granting,Not distance-education only,0,1643.0,5876.0,39,Cluster_2
18,101277,4187200,41872,New Beginning College of Cosmetology,1,Albertville,AL,35951,Alabama,,34.2593,-86.2,<li class='dropdown'>  <a href='https://www.nbccosmetology.com' target='_blank'>Main web page </a> </li>,www.nbccosmetology.com/npcalc.htm,Private for-profit,Certificate degree,Predominantly certificate-degree granting,Not distance-education only,0,1624.0,1764.0,2,Cluster_0
19,101286,101800,1018,George C Wallace State Community College-Dothan,1,Dothan,AL,36303-9234,Alabama,,31.3161,-85.4636,<li class='dropdown'>  <a href='https://www.wallace.edu' target='_blank'>Main web page </a> </li>,www.wallace.edu/net_price_calculator.aspx,Public,Associate degree,Predominantly associate's-degree granting,Not distance-education only,0,1927.0,5296.0,36,Cluster_2
20,101295,787100,7871,George C Wallace State Community College-Hanceville,1,Hanceville,AL,35077-2000,Alabama,,34.0734,-86.7817,<li class='dropdown'>  <a href='https://www.wallacestate.edu' target='_blank'>Main web page </a> </li>,www.wallacestate.edu/Financial-Aid/Net-Price-Calculator/index,Public,Associate degree,Predominantly associate's-degree granting,Not distance-education only,0,2707.0,5289.0,42,Cluster_2
21,101301,569900,5699,George C Wallace State Community College-Selma,1,Selma,AL,36703-2808,Alabama,,32.4456,-87.0132,<li class='dropdown'>  <a href='https://www.wccs.edu' target='_blank'>Main web page </a> </li>,www.wccs.edu/index.php?page=npc.html,Public,Associate degree,Predominantly associate's-degree granting,Not distance-education only,0,1312.0,5581.0,30,Cluster_2
22,101365,962107,9621,Herzing University-Birmingham,0,Birmingham,AL,35209,Alabama,,33.4681,-86.8323,<li class='dropdown'>  <a href='https://www.herzing.edu/birmingham' target='_blank'>Main web page </a> </li>,www.herzing.edu/financial-aid/net-price-calculator,Private for-profit,Bachelor's degree,Predominantly certificate-degree granting,Not distance-education only,0,8048.0,6942.0,18,Cluster_0
23,101435,101900,1019,Huntingdon College,1,Montgomery,AL,36106-2148,Alabama,<li class='dropdown'> Religion: United Methodist</li>,32.3509,-86.2853,<li class='dropdown'>  <a href='https://www.huntingdon.edu' target='_blank'>Main web page </a> </li>,hawk.huntingdon.edu/oiac/netpricecalculator/npcalc.htm,Private nonprofit,Bachelor's degree,Predominantly bachelor's-degree granting,Not distance-education only,0,9074.0,6571.0,15,Cluster_1
24,101453,2199700,21997,Heritage Christian University,1,Florence,AL,35630-9977,Alabama,<li class='dropdown'> Religion: Churches of Christ</li>,34.8591,-87.6621,<li class='dropdown'>  <a href='https://www.hcu.edu' target='_blank'>Main web page </a> </li>,www.hcu.edu/share/news/npcalc.htm,Private nonprofit,Graduate degree,Predominantly bachelor's-degree granting,Not distance-education only,0,10138.0,9356.0,2,Cluster_1
25,101462,526000,5260,J F Drake State Community and Technical College,1,Huntsville,AL,35811,Alabama,,34.7721,-86.5738,<li class='dropdown'>  <a href='https://www.drakestate.edu' target='_blank'>Main web page </a> </li>,www.drakestate.edu/admissions/net_price_calculator.aspx,Public,Associate degree,Predominantly certificate-degree granting,Not distance-education only,0,1348.0,5498.0,24,Cluster_2
26,101480,102000,1020,Jacksonville State University,1,Jacksonville,AL,36265,Alabama,,33.8221,-85.7666,<li class='dropdown'>  <a href='https://www.jsu.edu/' target='_blank'>Main web page </a> </li>,www.jsu.edu/finaid/,Public,Graduate degree,Predominantly bachelor's-degree granting,Not distance-education only,0,6192.0,6949.0,20,Cluster_3
27,101499,102100,1021,Jefferson Davis Community College,1,Brewton,AL,36426,Alabama,,31.102,-87.0858,<li class='dropdown'>  <a href='https://www.jdcc.edu' target='_blank'>Main web page </a> </li>,www.jdcc.edu/netpricecalculator/,Public,Associate degree,Predominantly associate's-degree granting,Not distance-education only,0,1084.0,5655.0,42,Cluster_2
28,101505,102200,1022,Jefferson State Community College,1,Birmingham,AL,35215-3098,Alabama,,33.6524,-86.7074,<li class='dropdown'>  <a href='https://www.jeffstateonline.com' target='_blank'>Main web page </a> </li>,www.jeffstateonline.com/financial/tuition/net-price-calculator/,Public,Associate degree,Predominantly associate's-degree granting,Not distance-education only,0,2670.0,4576.0,30,Cluster_2
29,101514,101300,1013,John C Calhoun State Community College,1,Tanner,AL,35671,Alabama,,34.6543,-86.9491,<li class='dropdown'>  <a href='https://www.calhoun.edu' target='_blank'>Main web page </a> </li>,calhoun.studentaidcalculator.com/,Public,Associate degree,Predominantly associate's-degree granting,Not distance-education only,0,2985.0,3720.0,54,Cluster_2
30,101541,102300,1023,Judson College,1,Marion,AL,36756,Alabama,<li class='dropdown'> Religion: Baptist</li>,32.6305,-87.3161,<li class='dropdown'>  <a href='https://www.judson.edu' target='_blank'>Main web page </a> </li>,www.judson.edu,Private nonprofit,Bachelor's degree,Predominantly bachelor's-degree granting,Not distance-education only,0,7626.0,9293.0,34,Cluster_1
31,101569,105900,1059,Lawson State Community College-Birmingham Campus,1,Birmingham,AL,35221-1717,Alabama,,33.4517,-86.8902,<li class='dropdown'>  <a href='https://www.lawsonstate.edu' target='_blank'>Main web page </a> </li>,www.lawsonstate.edu/financialaid/npc/npcalc.htm,Public,Associate degree,Predominantly certificate-degree granting,Not distance-education only,0,1576.0,5705.0,48,Cluster_2
32,101587,102400,1024,University of West Alabama,1,Livingston,AL,35470,Alabama,,32.5924,-88.1861,<li class='dropdown'>  <a href='https://www.uwa.edu' target='_blank'>Main web page </a> </li>,secure.uwa.edu/calculator/npcalc.htm,Public,Graduate degree,Predominantly bachelor's-degree granting,Not distance-education only,0,9161.0,8898.0,30,Cluster_3
33,101602,898800,8988,Lurleen B Wallace Community College,1,Andalusia,AL,36420-1418,Alabama,,31.3229,-86.4523,<li class='dropdown'>  <a href='https://www.lbwcc.edu' target='_blank'>Main web page </a> </li>,www.lbwcc.edu/financial_aid/2010-2011_net_price_calculator.aspx,Public,Associate degree,Predominantly certificate-degree granting,Not distance-education only,0,1757.0,5904.0,30,Cluster_2
34,101648,102600,1026,Marion Military Institute,1,Marion,AL,36756-3207,Alabama,,32.6224,-87.318,<li class='dropdown'>  <a href='https://www.marionmilitary.edu' target='_blank'>Main web page </a> </li>,www.marionmilitary.edu/admissions/netcalc/npcalc.htm,Public,Associate degree,Predominantly associate's-degree granting,Not distance-education only,0,2443.0,6128.0,1,Cluster_2
35,101675,102800,1028,Miles College,1,Fairfield,AL,35064-2621,Alabama,<li class='dropdown'> Religion: Christian Methodist Episcopal</li>,33.4813,-86.9086,<li class='dropdown'>  <a href='https://www.miles.edu' target='_blank'>Main web page </a> </li>,miles.edu,Private nonprofit,Bachelor's degree,Predominantly bachelor's-degree granting,Not distance-education only,0,5101.0,4921.0,15,Cluster_1
36,101693,102900,1029,University of Mobile,1,Mobile,AL,36613-2842,Alabama,<li class='dropdown'> Religion: Southern Baptist</li>,30.7932,-88.1289,<li class='dropdown'>  <a href='https://www.umobile.edu' target='_blank'>Main web page </a> </li>,tcc.noellevitz.com/(S(i2ma5wzihnqpsazmq43fszpq))/University%20of%20Mobile/Freshman-Students,Private nonprofit,Graduate degree,Predominantly bachelor's-degree granting,Not distance-education only,0,10339.0,6715.0,34,Cluster_1
37,101709,100400,1004,University of Montevallo,1,Montevallo,AL,35115-6000,Alabama,,33.1063,-86.8651,<li class='dropdown'>  <a href='https://www.montevallo.edu' target='_blank'>Main web page </a> </li>,www.montevallo.edu/finaid/NetPriceCalculator/,Public,Graduate degree,Predominantly bachelor's-degree granting,Not distance-education only,0,7161.0,7719.0,16,Cluster_3
38,101736,569700,5697,Northwest-Shoals Community College,1,Muscle Shoals,AL,35661,Alabama,,34.7396,-87.6773,<li class='dropdown'>  <a href='https://www.nwscc.edu' target='_blank'>Main web page </a> </li>,nwscc.edu/financialaid/netpricecalculator/npcalc.htm,Public,Associate degree,Predominantly associate's-degree granting,Not distance-education only,0,1338.0,5013.0,39,Cluster_2
39,101879,101600,1016,University of North Alabama,1,Florence,AL,35632-0001,Alabama,,34.8066,-87.681,<li class='dropdown'>  <a href='https://www.una.edu' target='_blank'>Main web page </a> </li>,studentnpc.collegeboard.org/,Public,Graduate degree,Predominantly bachelor's-degree granting,Not distance-education only,0,6530.0,6814.0,19,Cluster_3
40,101897,103100,1031,Northeast Alabama Community College,1,Rainsville,AL,35986,Alabama,,34.5455,-85.9117,<li class='dropdown'>  <a href='https://www.nacc.edu' target='_blank'>Main web page </a> </li>,www.nacc.edu,Public,Associate degree,Predominantly associate's-degree granting,Not distance-education only,0,1904.0,4473.0,30,Cluster_2
41,101912,103300,1033,Oakwood University,1,Huntsville,AL,35896,Alabama,<li class='dropdown'> Religion: Seventh Day Adventists</li>,34.7566,-86.6616,<li class='dropdown'>  <a href='https://www.oakwood.edu' target='_blank'>Main web page </a> </li>,www.oakwood.edu/campus-services/financial-aid,Private nonprofit,Graduate degree,Predominantly bachelor's-degree granting,Not distance-education only,0,11909.0,7656.0,42,Cluster_1
42,101949,103400,1034,Alabama Southern Community College,1,Monroeville,AL,36460,Alabama,,31.4889,-87.3264,<li class='dropdown'>  <a href='https://www.ascc.edu' target='_blank'>Main web page </a> </li>,www.ascc.edu,Public,Associate degree,Predominantly associate's-degree granting,Not distance-education only,0,3125.0,6731.0,18,Cluster_2
43,101958,2296000,22960,Prince Institute-Southeast,1,Montgomery,AL,36117,Alabama,,32.3831,-86.1622,<li class='dropdown'>  <a href='https://www.princeinstitute.edu' target='_blank'>Main web page </a> </li>,princeinstitute.edu,Private for-profit,Associate degree,Predominantly associate's-degree granting,Not distance-education only,0,10722.0,5269.0,6,Cluster_2
44,101994,569200,5692,Reid State Technical College,1,Evergreen,AL,36401,Alabama,,31.4607,-86.9645,<li class='dropdown'>  <a href='https://www.rstc.edu' target='_blank'>Main web page </a> </li>,www.rstc.edu,Public,Associate degree,Predominantly certificate-degree granting,Not distance-education only,0,1331.0,5559.0,30,Cluster_2
45,102030,103000,1030,Bishop State Community College,1,Mobile,AL,36603-5898,Alabama,,30.694,-88.057,<li class='dropdown'>  <a href='https://www.bishop.edu' target='_blank'>Main web page </a> </li>,www.bishop.edu/calculator/,Public,Associate degree,Predominantly associate's-degree granting,Not distance-education only,0,1692.0,5734.0,39,Cluster_2
46,102049,103600,1036,Samford University,1,Birmingham,AL,35229-2240,Alabama,<li class='dropdown'> Religion: Baptist</li>,33.4646,-86.7909,<li class='dropdown'>  <a href='https://www.samford.edu' target='_blank'>Main web page </a> </li>,samford.studentaidcalculator.com/welcome.aspx,Private nonprofit,Graduate degree,Predominantly bachelor's-degree granting,Not distance-education only,0,17548.0,14054.0,75,Cluster_1
47,102058,4067300,40673,Selma University,1,Selma,AL,36701,Alabama,<li class='dropdown'> Religion: Baptist</li>,32.4204,-87.0338,<li class='dropdown'>  <a href='https://www.selmauniversity.org' target='_blank'>Main web page </a> </li>,selmauniversity.org/financialaidtest.htm,Private nonprofit,Graduate degree,Predominantly bachelor's-degree granting,Not distance-education only,0,4873.0,3672.0,6,Cluster_1
48,102067,569100,5691,Shelton State Community College,1,Tuscaloosa,AL,35405-8522,Alabama,,33.1205,-87.5615,<li class='dropdown'>  <a href='https://www.sheltonstate.edu' target='_blank'>Main web page </a> </li>,www.sheltonstate.edu/financial_aid/price_calculator.aspx,Public,Associate degree,Predominantly associate's-degree granting,Not distance-education only,0,2285.0,4407.0,39,Cluster_2
49,102076,103800,1038,Snead State Community College,1,Boaz,AL,35957-0734,Alabama,,34.2007,-86.1695,<li class='dropdown'>  <a href='https://www.snead.edu' target='_blank'>Main web page </a> </li>,www.snead.edu/npcalc.htm,Public,Associate degree,Predominantly associate's-degree granting,Not distance-education only,0,2092.0,3589.0,21,Cluster_2
50,102094,105700,1057,University of South Alabama,1,Mobile,AL,36688-0002,Alabama,,30.6951,-88.1819,<li class='dropdown'>  <a href='https://www.southalabama.edu' target='_blank'>Main web page </a> </li>,instresrch.usouthal.edu/npc/,Public,Graduate degree,Predominantly bachelor's-degree granting,Not distance-education only,0,6914.0,10325.0,80,Cluster_3
51,102234,104100,1041,Spring Hill College,1,Mobile,AL,36608-1791,Alabama,<li class='dropdown'> Religion: Roman Catholic</li>,30.6948,-88.1382,<li class='dropdown'>  <a href='https://www.shc.edu' target='_blank'>Main web page </a> </li>,www.shc.edu/ug/tuition-and-financial-aid/resources/net-price-calculator,Private nonprofit,Graduate degree,Predominantly bachelor's-degree granting,Not distance-education only,0,10653.0,6999.0,51,Cluster_1
52,102261,2270400,22704,Southeastern Bible College,1,Birmingham,AL,35224-2083,Alabama,,33.3789,-86.749,<li class='dropdown'>  <a href='https://www.sebc.edu' target='_blank'>Main web page </a> </li>,www.sebc.edu/finaid/net-price-calculator/,Private nonprofit,Bachelor's degree,Predominantly bachelor's-degree granting,Not distance-education only,0,10496.0,4314.0,3,Cluster_1
53,102270,104400,1044,Stillman College,1,Tuscaloosa,AL,35403,Alabama,<li class='dropdown'> Religion: Presbyterian Church (USA)</li>,33.1992,-87.5852,<li class='dropdown'>  <a href='https://www.stillman.edu' target='_blank'>Main web page </a> </li>,www.stillman.edu/finanical-aid/npcalc.htm,Private nonprofit,Bachelor's degree,Predominantly bachelor's-degree granting,Not distance-education only,0,10367.0,4330.0,13,Cluster_1
54,102298,104600,1046,Talladega College,1,Talladega,AL,35160,Alabama,<li class='dropdown'> Religion: United Church of Christ</li>,33.4343,-86.1137,<li class='dropdown'>  <a href='https://www.talladega.edu' target='_blank'>Main web page </a> </li>,www.talladega.edu/netcalc/npcalc.htm,Private nonprofit,Bachelor's degree,Predominantly bachelor's-degree granting,Not distance-education only,0,13302.0,6876.0,14,Cluster_1
55,102313,573400,5734,H Councill Trenholm State Technical College,1,Montgomery,AL,36108-3199,Alabama,,32.3501,-86.3431,<li class='dropdown'>  <a href='https://www.trenholmstate.edu' target='_blank'>Main web page </a> </li>,www.trenholmstate.edu,Public,Associate degree,Predominantly certificate-degree granting,Not distance-education only,0,2371.0,8051.0,33,Cluster_2
56,102368,104700,1047,Troy University,1,Troy,AL,36082-0001,Alabama,,31.8001,-85.9502,<li class='dropdown'>  <a href='https://www.troy.edu' target='_blank'>Main web page </a> </li>,admissions.troy.edu/npcalc.aspx,Public,Graduate degree,Predominantly bachelor's-degree granting,Not distance-education only,0,8133.0,5260.0,42,Cluster_3
57,102377,105000,1050,Tuskegee University,1,Tuskegee,AL,36088-1920,Alabama,,32.431,-85.7103,<li class='dropdown'>  <a href='https://www.tuskegee.edu' target='_blank'>Main web page </a> </li>,www.tuskegee.edu,Private nonprofit,Graduate degree,Predominantly bachelor's-degree granting,Not distance-education only,0,14071.0,13235.0,17,Cluster_1
58,102395,2170600,21706,United States Sports Academy,1,Daphne,AL,36526-7055,Alabama,,30.6393,-87.9116,<li class='dropdown'>  <a href='https://www.ussa.edu' target='_blank'>Main web page </a> </li>,,Private nonprofit,Graduate degree,Predominantly bachelor's-degree granting,Not distance-education only,0,13741.0,3428.0,2,Cluster_1
59,102429,573300,5733,Bevill State Community College,1,Jasper,AL,35501,Alabama,,33.8358,-87.265,<li class='dropdown'>  <a href='https://www.bscc.edu' target='_blank'>Main web page </a> </li>,www.bscc.edu/financialaid/npcalculator.php,Public,Associate degree,Predominantly associate's-degree granting,Not distance-education only,0,1857.0,6162.0,39,Cluster_2
60,102553,1146200,11462,University of Alaska Anchorage,1,Anchorage,AK,99508,Alaska,,61.1896,-149.8261,<li class='dropdown'>  <a href='https://www.uaa.alaska.edu' target='_blank'>Main web page </a> </li>,www.uaa.alaska.edu/financialaid/customcf/npcalc.htm,Public,Graduate degree,Predominantly bachelor's-degree granting,Not distance-education only,0,5732.0,9844.0,124,Cluster_3
61,102580,884300,8843,Alaska Bible College,1,Palmer,AK,99645,Alaska,<li class='dropdown'> Religion: Undenominational</li>,62.113,-145.5262,<li class='dropdown'>  <a href='https://www.akbible.edu/' target='_blank'>Main web page </a> </li>,www.akbible.edu/sites/default/files/npcalc.htm,Private nonprofit,Bachelor's degree,Predominantly certificate-degree granting,Not distance-education only,0,5777.0,14539.0,4,Cluster_1
62,102614,106300,1063,University of Alaska Fairbanks,1,Fairbanks,AK,99775-7500,Alaska,,64.8571,-147.8248,<li class='dropdown'>  <a href='https://www.uaf.edu' target='_blank'>Main web page </a> </li>,www.uaf.edu/finaid/net-price-calculator/,Public,Graduate degree,Predominantly bachelor's-degree granting,Not distance-education only,0,6510.0,16400.0,128,Cluster_3
63,102632,106500,1065,University of Alaska Southeast,1,Juneau,AK,99801-8697,Alaska,,58.3843,-134.6363,<li class='dropdown'>  <a href='https://www.uas.alaska.edu' target='_blank'>Main web page </a> </li>,www.uas.alaska.edu/financial_aid/costs/npcalc.htm,Public,Graduate degree,Predominantly bachelor's-degree granting,Not distance-education only,0,6158.0,11626.0,104,Cluster_3
64,102669,106100,1061,Alaska Pacific University,1,Anchorage,AK,99508,Alaska,<li class='dropdown'> Religion: United Methodist</li>,61.1912,-149.8042,<li class='dropdown'>  <a href='https://www.alaskapacific.edu' target='_blank'>Main web page </a> </li>,my.alaskapacific.edu/uniquesigce3d1b55322415c149deda8964ead9cb/uniquesig0/SecureInternalMyPortalHomePage/,Private nonprofit,Graduate degree,Predominantly bachelor's-degree granting,Not distance-education only,0,13615.0,10753.0,33,Cluster_1
65,102711,3160300,31603,AVTEC-Alaska's Institute of Technology,1,Seward,AK,99664-0889,Alaska,,60.1107,-149.4446,<li class='dropdown'>  <a href='https://www.avtec.edu/' target='_blank'>Main web page </a> </li>,www.avtec.edu/npcalc.htm,Public,Associate degree,Predominantly certificate-degree granting,Not distance-education only,0,5501.0,21543.0,27,Cluster_2
66,102845,2576900,25769,Charter College-Anchorage,1,Anchorage,AK,99508,Alaska,,61.1958,-149.8402,<li class='dropdown'>  <a href='https://www.chartercollege.edu' target='_blank'>Main web page </a> </li>,chartercollege.studentaidcalculator.com/survey.aspx,Private for-profit,Bachelor's degree,Predominantly certificate-degree granting,Not distance-education only,0,20340.0,6073.0,28,Cluster_0
67,103361,1146205,11462,Prince William Sound Community College,0,Valdez,AK,99686-0097,Alaska,,61.1224,-146.178,<li class='dropdown'>  <a href='https://www.pwscc.edu' target='_blank'>Main web page </a> </li>,www.pwscc.edu/admissions/tuition-fees/,Public,Associate degree,Predominantly associate's-degree granting,Not distance-education only,0,3126.0,9474.0,21,Cluster_2
68,103501,2541000,25410,Alaska Career College,1,Anchorage,AK,99507-1033,Alaska,,61.1814,-149.857,<li class='dropdown'>  <a href='https://www.alaskacareercollege.edu' target='_blank'>Main web page </a> </li>,www.alaskacareercollege.edu,Private for-profit,Associate degree,Predominantly certificate-degree granting,Not distance-education only,0,6193.0,1894.0,9,Cluster_2
69,103644,2295000,22950,Everest College-Phoenix,1,Phoenix,AZ,85021-1641,Arizona,,33.581,-112.1138,<li class='dropdown'>  <a href='https://www.everestcollegephoenix.edu' target='_blank'>Main web page </a> </li>,www.Everestcollegephoenix.edu/npc,Private for-profit,Bachelor's degree,Predominantly associate's-degree granting,Not distance-education only,0,13190.0,8489.0,12,Cluster_2
70,103723,2160305,21603,Collins College,0,Phoenix,AZ,85040,Arizona,,33.4033,-111.9865,<li class='dropdown'>  <a href='https://www.collinscollege.edu' target='_blank'>Main web page </a> </li>,collinscollege.studentaidcalculator.com,Private for-profit,Bachelor's degree,Predominantly bachelor's-degree granting,Not distance-education only,0,19717.0,5313.0,8,Cluster_1
71,103732,2173204,21732,Empire Beauty School-Paradise Valley,0,Phoenix,AZ,85032,Arizona,,33.6026,-111.9764,<li class='dropdown'>  <a href='https://www.empire.edu' target='_blank'>Main web page </a> </li>,www.empire.edu/net-price-calculator,Private for-profit,Certificate degree,Predominantly certificate-degree granting,Not distance-education only,0,8231.0,11911.0,2,Cluster_0
72,103741,966403,9664,Empire Beauty School-Tucson,0,Tucson,AZ,85716,Arizona,,32.2357,-110.9272,<li class='dropdown'>  <a href='https://www.empire.edu' target='_blank'>Main web page </a> </li>,www.empire.edu/net-price-calculator,Private for-profit,Certificate degree,Predominantly certificate-degree granting,Not distance-education only,0,7447.0,6749.0,2,Cluster_0
73,103778,107000,1070,Thunderbird School of Global Management,1,Glendale,AZ,85306-6000,Arizona,,33.6209,-112.1809,<li class='dropdown'>  <a href='https://www.thunderbird.edu' target='_blank'>Main web page </a> </li>,,Private nonprofit,Graduate degree,Predominantly certificate-degree granting,Not distance-education only,0,62758.0,53366.0,1,Cluster_1
74,103787,2199900,21999,American Indian College of the Assemblies of God Inc,1,Phoenix,AZ,85021,Arizona,<li class='dropdown'> Religion: Assemblies of God Church</li>,33.5777,-112.0922,<li class='dropdown'>  <a href='https://www.aicag.edu/' target='_blank'>Main web page </a> </li>,www.aicag.edu/npc/npcalc.htm,Private nonprofit,Bachelor's degree,Predominantly bachelor's-degree granting,Not distance-education only,0,5550.0,6669.0,6,Cluster_1
75,103811,2317800,23178,American Institute of Technology,1,Phoenix,AZ,85043-4729,Arizona,,33.4423,-112.1753,<li class='dropdown'>  <a href='https://www.ait-schools.com' target='_blank'>Main web page </a> </li>,www.ait-schools.com,Private for-profit,Certificate degree,Predominantly certificate-degree granting,Not distance-education only,0,6018.0,3061.0,1,Cluster_0
76,103893,2100600,21006,Carrington College-Phoenix,1,Phoenix,AZ,85051-4063,Arizona,,33.5608,-112.1155,<li class='dropdown'>  <a href='https://www.carrington.edu' target='_blank'>Main web page </a> </li>,carrington.edu/financial-aid/net-price-calculator/carrington-college/,Private for-profit,Bachelor's degree,Predominantly certificate-degree granting,Not distance-education only,0,11721.0,2326.0,3,Cluster_0
77,103909,2100611,21006,Carrington College-Mesa,0,Mesa,AZ,85210,Arizona,,33.393,-111.8553,<li class='dropdown'>  <a href='https://www.carrington.edu' target='_blank'>Main web page </a> </li>,carrington.edu/financial-aid/net-price-calculator/carrington-college/,Private for-profit,Associate degree,Predominantly certificate-degree granting,Not distance-education only,0,13311.0,4729.0,3,Cluster_2
78,103927,2100607,21006,Carrington College-Tucson,0,Tucson,AZ,85705-5885,Arizona,,32.2709,-110.978,<li class='dropdown'>  <a href='https://www.carrington.edu' target='_blank'>Main web page </a> </li>,carrington.edu/financial-aid/net-price-calculator/carrington-college/,Private for-profit,Associate degree,Predominantly certificate-degree granting,Not distance-education only,0,11942.0,2549.0,2,Cluster_2
79,103945,3120300,31203,College America-Flagstaff,1,Flagstaff,AZ,86004,Arizona,,35.2112,-111.6048,<li class='dropdown'>  <a href='https://www.collegeamerica.edu' target='_blank'>Main web page </a> </li>,www.collegeamerica.edu/net-price-calculator,Private nonprofit,Bachelor's degree,Predominantly associate's-degree granting,Not distance-education only,0,14468.0,3013.0,6,Cluster_1
80,103954,886400,8864,Arizona Academy of Beauty-East,1,Tucson,AZ,85712,Arizona,,32.2373,-110.8723,<li class='dropdown'>  <a href='https://www.arizonaacademy.com' target='_blank'>Main web page </a> </li>,www.arizonaacademy.com,Private for-profit,Certificate degree,Predominantly certificate-degree granting,Not distance-education only,0,7119.0,3599.0,2,Cluster_0
81,103963,1084700,10847,Arizona Automotive Institute,1,Glendale,AZ,85301-3579,Arizona,,33.5372,-112.1573,<li class='dropdown'>  <a href='https://www.aai.edu' target='_blank'>Main web page </a> </li>,www.aai.edu,Private for-profit,Certificate degree,Predominantly certificate-degree granting,Not distance-education only,0,11919.0,5391.0,4,Cluster_0
82,104090,2218800,22188,Brookline College-Phoenix,1,Phoenix,AZ,85021,Arizona,,33.5254,-112.1501,<li class='dropdown'>  <a href='https://www.brooklinecollege.edu' target='_blank'>Main web page </a> </li>,www.brooklinecollege.edu,Private for-profit,Bachelor's degree,Predominantly certificate-degree granting,Not distance-education only,0,25798.0,8116.0,15,Cluster_0
83,104151,108100,1081,Arizona State University-Tempe,1,Tempe,AZ,85287,Arizona,,33.4219,-111.94,<li class='dropdown'>  <a href='https://www.asu.edu/' target='_blank'>Main web page </a> </li>,students.asu.edu/costs,Public,Graduate degree,Predominantly bachelor's-degree granting,Not distance-education only,0,11705.0,9080.0,78,Cluster_3
84,104160,107100,1071,Arizona Western College,1,Yuma,AZ,85365-8834,Arizona,,32.6893,-114.496,<li class='dropdown'>  <a href='https://www.azwestern.edu' target='_blank'>Main web page </a> </li>,www.azwestern.edu/business_and_administrative/business_office/npcalc.html,Public,Associate degree,Predominantly certificate-degree granting,Not distance-education only,0,746.0,5028.0,93,Cluster_2
85,104179,108300,1083,University of Arizona,1,Tucson,AZ,85721-0066,Arizona,,32.2321,-110.9508,<li class='dropdown'>  <a href='https://www.arizona.edu' target='_blank'>Main web page </a> </li>,oirps.arizona.edu/npc.html,Public,Graduate degree,Predominantly bachelor's-degree granting,Not distance-education only,0,12051.0,11382.0,27,Cluster_3
86,104188,2491500,24915,Southwest University of Visual Arts-Tucson,1,Tucson,AZ,85716,Arizona,,32.2524,-110.9273,<li class='dropdown'>  <a href='https://www.suva.edu' target='_blank'>Main web page </a> </li>,suva.edu/financial_aid.html,Private for-profit,Bachelor's degree,Predominantly bachelor's-degree granting,Not distance-education only,0,15423.0,3390.0,4,Cluster_1
87,104294,2561900,25619,Brillare Hairdressing Academy,1,Scottsdale,AZ,85254,Arizona,,33.624,-111.9255,<li class='dropdown'>  <a href='https://www.brillare.com/' target='_blank'>Main web page </a> </li>,brillare.com/enrollment/financial-aid-tuition,Private for-profit,Certificate degree,Predominantly certificate-degree granting,Not distance-education only,0,9287.0,5643.0,1,Cluster_0
88,104346,728300,7283,Central Arizona College,1,Coolidge,AZ,85128-9030,Arizona,,32.9571,-111.6525,<li class='dropdown'>  <a href='https://www.centralaz.edu' target='_blank'>Main web page </a> </li>,doc.centralaz.edu/NetPriceCalculator/npcalc.htm,Public,Associate degree,Predominantly associate's-degree granting,Not distance-education only,0,1226.0,5725.0,51,Cluster_2
89,104364,4051325,40513,Brown Mackie College-Tucson,0,Tucson,AZ,85712,Arizona,,32.2367,-110.8951,<li class='dropdown'>  <a href='https://www.brownmackie.edu' target='_blank'>Main web page </a> </li>,tcc.noellevitz.com/edmc/Brown-Mackie?iframe=true&width=600&height=1000,Private for-profit,Bachelor's degree,Predominantly associate's-degree granting,Not distance-education only,0,10282.0,2554.0,27,Cluster_2
90,104391,2280500,22805,Charles of Italy Beauty College,1,Lake Havasu City,AZ,86403,Arizona,,34.4753,-114.3281,<li class='dropdown'>  <a href='https://www.charlesofitaly.edu' target='_blank'>Main web page </a> </li>,charlesofitaly.edu,Private for-profit,Certificate degree,Predominantly certificate-degree granting,Not distance-education only,0,8134.0,1485.0,4,Cluster_0
91,104425,107200,1072,Cochise College,1,Douglas,AZ,85607-6190,Arizona,,31.3658,-109.6904,<li class='dropdown'>  <a href='https://www.cochise.edu' target='_blank'>Main web page </a> </li>,www.cochise.edu/netprice/npcalc.htm,Public,Associate degree,Predominantly associate's-degree granting,Not distance-education only,0,524.0,2803.0,87,Cluster_2
92,104434,1054207,10542,Empire Beauty School-Flagstaff,0,Flagstaff,AZ,86004,Arizona,,35.1972,-111.6259,<li class='dropdown'>  <a href='https://www.empire.edu' target='_blank'>Main web page </a> </li>,www.empire.edu/net-price-calculator,Private for-profit,Certificate degree,Predominantly certificate-degree granting,Not distance-education only,0,8704.0,6952.0,2,Cluster_0
93,104443,1054208,10542,Empire Beauty School-Chandler,0,Chandler,AZ,85224,Arizona,,33.3476,-111.8604,<li class='dropdown'>  <a href='https://www.empire.edu' target='_blank'>Main web page </a> </li>,www.empire.edu/net-price-calculator,Private for-profit,Certificate degree,Predominantly certificate-degree granting,Not distance-education only,0,8290.0,7486.0,2,Cluster_0
94,104504,2582700,25827,Cortiva Institute-Tucson,1,Tucson,AZ,85710,Arizona,,32.219,-110.8568,<li class='dropdown'>  <a href='https://www.cortiva.com/' target='_blank'>Main web page </a> </li>,www.cortiva.com/npc/tucson/npcalc.htm,Private for-profit,Certificate degree,Predominantly certificate-degree granting,Not distance-education only,0,5761.0,3937.0,2,Cluster_0
95,104568,1085800,10858,Avalon School of Cosmetology-Mesa,1,Mesa,AZ,85210,Arizona,,33.3766,-111.8583,<li class='dropdown'>  <a href='https://www.avalon.com' target='_blank'>Main web page </a> </li>,www.avalon.edu/admissions-process/financial-aid/,Private for-profit,Certificate degree,Predominantly certificate-degree granting,Not distance-education only,0,5660.0,4143.0,2,Cluster_0
96,104577,107300,1073,Eastern Arizona College,1,Thatcher,AZ,85552-0769,Arizona,,32.8407,-109.7617,<li class='dropdown'>  <a href='https://www.eac.edu' target='_blank'>Main web page </a> </li>,eac.edu/Student_Services/Financial_Aid/Net_Price/default.shtm,Public,Associate degree,Predominantly certificate-degree granting,Not distance-education only,0,906.0,5140.0,69,Cluster_2
97,104586,147902,1479,Embry-Riddle Aeronautical University-Prescott,0,Prescott,AZ,86301-3720,Arizona,,34.6157,-112.4523,<li class='dropdown'>  <a href='https://www.erau.edu' target='_blank'>Main web page </a> </li>,prescott.erau.edu/financial-aid/net-price-calculator/index.html,Private nonprofit,Graduate degree,Predominantly bachelor's-degree granting,Not distance-education only,0,35302.0,18433.0,7,Cluster_1
98,104665,2533200,25332,Frank Lloyd Wright School of Architecture,1,Scottsdale,AZ,85261-4430,Arizona,,33.6072,-111.8465,<li class='dropdown'>  <a href='https://www.taliesin.edu' target='_blank'>Main web page </a> </li>,taliesin.edu/tuition.html,Private nonprofit,Graduate degree,Predominantly bachelor's-degree granting,Not distance-education only,0,19359.0,10874.0,1,Cluster_1
99,104708,107600,1076,Glendale Community College,1,Glendale,AZ,85302,Arizona,,33.5675,-112.1883,<li class='dropdown'>  <a href='https://www.gccaz.edu' target='_blank'>Main web page </a> </li>,www.gccaz.edu/finaid/1519.htm,Public,Associate degree,Predominantly certificate-degree granting,Not distance-education only,0,1473.0,4521.0,60,Cluster_2
100,104717,107400,1074,Grand Canyon University,1,Phoenix,AZ,85017,Arizona,,33.5122,-112.1299,<li class='dropdown'>  <a href='https://www.gcu.edu' target='_blank'>Main web page </a> </li>,www.gcu.edu,Private for-profit,Graduate degree,Predominantly bachelor's-degree granting,Not distance-education only,0,10748.0,2806.0,16,Cluster_1
101,104805,2263100,22631,Anthem College-Phoenix,1,Phoenix,AZ,85014,Arizona,,33.4943,-112.0502,<li class='dropdown'>  <a href='https://www.anthem.edu' target='_blank'>Main web page </a> </li>,anthem.edu/anthemcollege/net-price-calculator/,Private for-profit,Bachelor's degree,Predominantly associate's-degree granting,Not distance-education only,0,8537.0,993.0,21,Cluster_2
102,104911,1218400,12184,International Academy of Hair Design,1,Mesa,AZ,85202-4887,Arizona,,33.393,-111.8627,<li class='dropdown'>  <a href='https://www.intlacademyaz.com/' target='_blank'>Main web page </a> </li>,www.intlacademyaz.com/,Private for-profit,Certificate degree,Predominantly certificate-degree granting,Not distance-education only,0,10192.0,4397.0,2,Cluster_0
103,105118,2071200,20712,Kaplan College-Phoenix,1,Phoenix,AZ,85029,Arizona,,33.6082,-112.1189,<li class='dropdown'>  <a href='https://www.kaplancollege.com/phoenix-az/' target='_blank'>Main web page </a> </li>,www.kaplancollege.com/tuition-calculator/.aspx,Private for-profit,Associate degree,Predominantly certificate-degree granting,Not distance-education only,0,10755.0,4722.0,4,Cluster_2
104,105145,830300,8303,GateWay Community College,1,Phoenix,AZ,85034,Arizona,,33.4495,-111.9965,<li class='dropdown'>  <a href='https://www.gatewaycc.edu' target='_blank'>Main web page </a> </li>,www.maricopa.edu/about/tuition/npc/location/gwc,Public,Associate degree,Predominantly certificate-degree granting,Not distance-education only,0,2122.0,5675.0,68,Cluster_2
105,105154,107700,1077,Mesa Community College,1,Mesa,AZ,85202,Arizona,,33.3913,-111.8715,<li class='dropdown'>  <a href='https://www.mesacc.edu' target='_blank'>Main web page </a> </li>,www.mesacc.edu/students/net-price-calculator.html,Public,Associate degree,Predominantly certificate-degree granting,Not distance-education only,0,1815.0,4626.0,84,Cluster_2
106,105163,732990,7329,ITT Technical Institute-Tucson,0,Tucson,AZ,85704-5829,Arizona,,32.2973,-110.9975,<li class='dropdown'>  <a href='https://www.itt-tech.edu' target='_blank'>Main web page </a> </li>,www.itt-tech.edu/npc,Private for-profit,Bachelor's degree,Predominantly associate's-degree granting,Not distance-education only,0,21110.0,3261.0,12,Cluster_2
107,105172,732911,7329,ITT Technical Institute-Tempe,0,Tempe,AZ,85282,Arizona,,33.3804,-111.9692,<li class='dropdown'>  <a href='https://www.itt-tech.edu' target='_blank'>Main web page </a> </li>,www.itt-tech.edu/npc,Private for-profit,Bachelor's degree,Predominantly associate's-degree granting,Not distance-education only,0,21842.0,3235.0,12,Cluster_2
108,105206,1186400,11864,Mohave Community College,1,Kingman,AZ,86409-1238,Arizona,,35.2707,-114.0302,<li class='dropdown'>  <a href='https://www.mohave.edu' target='_blank'>Main web page </a> </li>,www.mohave.edu/admissions/financialaid,Public,Associate degree,Predominantly certificate-degree granting,Not distance-education only,0,1477.0,3518.0,75,Cluster_2
109,105215,2100500,21005,Universal Technical Institute of Arizona Inc-Motorcycle Mechanics Institute Division,1,Phoenix,AZ,85027,Arizona,,33.6844,-112.1213,<li class='dropdown'>  <a href='https://www.uti.edu/' target='_blank'>Main web page </a> </li>,www.uti.edu/student-services/financial-aid/npc,Private for-profit,Certificate degree,Predominantly certificate-degree granting,Not distance-education only,0,11054.0,3371.0,2,Cluster_0
110,105297,824600,8246,Dine College,1,Tsaile,AZ,86556,Arizona,,36.3276,-109.2947,<li class='dropdown'>  <a href='https://www.dinecollege.edu' target='_blank'>Main web page </a> </li>,www.dinecollege.edu,Public,Bachelor's degree,Predominantly associate's-degree granting,Not distance-education only,0,343.0,7478.0,36,Cluster_2
111,105330,108200,1082,Northern Arizona University,1,Flagstaff,AZ,86011-4132,Arizona,,35.1801,-111.6577,<li class='dropdown'>  <a href='https://www.nau.edu/' target='_blank'>Main web page </a> </li>,nau.edu/FinAid/Cost/Budgeting/,Public,Graduate degree,Predominantly bachelor's-degree granting,Not distance-education only,0,6697.0,6893.0,48,Cluster_3
112,105349,1186200,11862,Northland Pioneer College,1,Holbrook,AZ,86025-0610,Arizona,,34.9222,-110.1316,<li class='dropdown'>  <a href='https://www.npc.edu' target='_blank'>Main web page </a> </li>,www.npc.edu/net-price-calculator/2011-net-price-calculator,Public,Associate degree,Predominantly certificate-degree granting,Not distance-education only,0,1256.0,5745.0,48,Cluster_2
113,105367,193701,1937,Ottawa University-Phoenix,0,Phoenix,AZ,85021,Arizona,<li class='dropdown'> Religion: American Baptist</li>,33.5779,-112.1134,<li class='dropdown'>  <a href='https://www.ottawa.edu' target='_blank'>Main web page </a> </li>,www.ottawa.edu/resources/netpricecalculator/npcalc.htm,Private nonprofit,Graduate degree,Predominantly bachelor's-degree granting,Not distance-education only,0,7555.0,1951.0,11,Cluster_1
114,105428,107800,1078,Phoenix College,1,Phoenix,AZ,85013,Arizona,,33.4814,-112.0883,<li class='dropdown'>  <a href='https://www.phoenixcollege.edu' target='_blank'>Main web page </a> </li>,www.pc.maricopa.edu/index.php?page=127&subpage=394,Public,Associate degree,Predominantly certificate-degree granting,Not distance-education only,0,1376.0,4864.0,54,Cluster_2
115,105482,2623800,26238,Cortiva Institute-Scottsdale,1,Scottsdale,AZ,85257,Arizona,,33.4666,-111.9084,<li class='dropdown'>  <a href='https://www.cortiva.com/' target='_blank'>Main web page </a> </li>,www.cortiva.com/locations/arizona-massage-school/tuition-financial-aid.aspx,Private for-profit,Certificate degree,Predominantly certificate-degree granting,Not distance-education only,0,8057.0,7446.0,1,Cluster_0
116,105516,2098800,20988,University of Phoenix-Phoenix Campus,1,Tempe,AZ,85282-2371,Arizona,,33.4123,-111.9802,<li class='dropdown'>  <a href='https://www.phoenix.edu' target='_blank'>Main web page </a> </li>,www.phoenix.edu/tuition_and_financial_options/tuition_and_fees.html,Private for-profit,Graduate degree,Predominantly bachelor's-degree granting,Not distance-education only,0,9946.0,1898.0,27,Cluster_1
117,105525,726600,7266,Pima Community College,1,Tucson,AZ,85709-1275,Arizona,,32.2268,-110.9852,<li class='dropdown'>  <a href='https://www.pima.edu' target='_blank'>Main web page </a> </li>,www.pima.edu/web/net-price-calculator/npc.htm,Public,Associate degree,Predominantly certificate-degree granting,Not distance-education only,0,1598.0,3615.0,66,Cluster_2
118,105534,2217100,22171,Pima Medical Institute-Tucson,1,Tucson,AZ,85716,Arizona,,32.2504,-110.9213,<li class='dropdown'>  <a href='https://www.pmi.edu' target='_blank'>Main web page </a> </li>,pmi.edu,Private for-profit,Bachelor's degree,Predominantly certificate-degree granting,Not distance-education only,0,6092.0,2523.0,4,Cluster_0
119,105543,2217103,22171,Pima Medical Institute-Albuquerque,0,Albuquerque,NM,87110,New Mexico,,35.1055,-106.5947,<li class='dropdown'>  <a href='https://www.pmi.edu' target='_blank'>Main web page </a> </li>,pmi.edu,Private for-profit,Associate degree,Predominantly certificate-degree granting,Not distance-education only,0,5951.0,2789.0,3,Cluster_2
120,105589,2065300,20653,Prescott College,1,Prescott,AZ,86301,Arizona,,34.5445,-112.4765,<li class='dropdown'>  <a href='https://www.prescott.edu' target='_blank'>Main web page </a> </li>,www.prescott.edu/apply/true-cost-calculator/index.html,Private nonprofit,Graduate degree,Predominantly bachelor's-degree granting,Not distance-education only,0,14975.0,6669.0,16,Cluster_1
121,105659,1168900,11689,Refrigeration School Inc,1,Phoenix,AZ,85034-1816,Arizona,,33.4487,-111.9894,<li class='dropdown'>  <a href='https://www.refrigerationschool.com' target='_blank'>Main web page </a> </li>,www.refrigerationschool.com/tuition.html,Private for-profit,Associate degree,Predominantly certificate-degree granting,Not distance-education only,0,10161.0,2393.0,6,Cluster_2
122,105668,2177500,21775,Rio Salado College,1,Tempe,AZ,85281,Arizona,,33.4131,-111.9752,<li class='dropdown'>  <a href='https://www.rio.maricopa.edu' target='_blank'>Main web page </a> </li>,www.riosalado.edu/financial_aid/Pages/Calculators.aspx,Public,Associate degree,Predominantly certificate-degree granting,Not distance-education only,0,2403.0,2104.0,60,Cluster_2
123,105677,2113800,21138,Roberto-Venn School of Luthiery,1,Phoenix,AZ,85007,Arizona,,33.4547,-112.0864,<li class='dropdown'>  <a href='https://www.roberto-venn.com' target='_blank'>Main web page </a> </li>,www.roberto-venn.com/NetPrice/npcalc.htm,Private for-profit,Certificate degree,Predominantly certificate-degree granting,Not distance-education only,0,10356.0,5276.0,1,Cluster_0
124,105701,3005000,30050,Hair Academy of Safford,1,Safford,AZ,85546,Arizona,,32.8353,-109.7277,<li class='dropdown'>  <a href='https://www.hairacademy.com' target='_blank'>Main web page </a> </li>,hairacademy.com,Private for-profit,Certificate degree,Predominantly certificate-degree granting,Not distance-education only,0,3546.0,3962.0,2,Cluster_0
125,105747,830400,8304,Scottsdale Community College,1,Scottsdale,AZ,85256,Arizona,,33.5095,-111.8873,<li class='dropdown'>  <a href='https://www.scottsdalecc.edu' target='_blank'>Main web page </a> </li>,www.scottsdalecc.edu/admissions/cashiers-office/net-price-calculator,Public,Associate degree,Predominantly associate's-degree granting,Not distance-education only,0,2174.0,6026.0,54,Cluster_2
126,105792,2146600,21466,South Mountain Community College,1,Phoenix,AZ,85042,Arizona,,33.381,-112.0575,<li class='dropdown'>  <a href='https://www.southmountaincc.edu' target='_blank'>Main web page </a> </li>,students.southmountaincc.edu/Services/FinancialAid/,Public,Associate degree,Predominantly associate's-degree granting,Not distance-education only,0,942.0,5557.0,36,Cluster_2
127,105899,711300,7113,Arizona Christian University,1,Phoenix,AZ,85032-7097,Arizona,<li class='dropdown'> Religion: Undenominational</li>,33.5951,-112.0262,<li class='dropdown'>  <a href='https://www.arizonachristian.edu' target='_blank'>Main web page </a> </li>,arizonachristian.edu/admissions/financial-aid/calculator,Private nonprofit,Bachelor's degree,Predominantly bachelor's-degree granting,Not distance-education only,0,10013.0,5656.0,18,Cluster_1
128,105987,446700,4467,Tucson College,1,Tucson,AZ,85711,Arizona,,32.2218,-110.8835,<li class='dropdown'>  <a href='https://www.tucsoncollege.edu' target='_blank'>Main web page </a> </li>,tucsoncollege.studentaidcalculator.com/survey.aspx,Private for-profit,Certificate degree,Predominantly certificate-degree granting,Not distance-education only,0,12415.0,3553.0,8,Cluster_0
129,106041,822100,8221,Universal Technical Institute of Arizona Inc,1,Avondale,AZ,85323,Arizona,,33.4535,-112.2897,<li class='dropdown'>  <a href='https://www.uti.edu' target='_blank'>Main web page </a> </li>,www.uti.edu/student-services/financial-aid/npc,Private for-profit,Associate degree,Predominantly associate's-degree granting,Not distance-education only,0,10675.0,3181.0,3,Cluster_2
130,106102,2171500,21715,Western International University,1,Tempe,AZ,85282,Arizona,,33.6007,-112.1184,<li class='dropdown'>  <a href='https://www.west.edu' target='_blank'>Main web page </a> </li>,www.west.edu/calc/npcalc.htm,Private for-profit,Graduate degree,Predominantly bachelor's-degree granting,Not distance-education only,0,13780.0,2651.0,21,Cluster_1
131,106111,945915,9459,Empire Beauty School-NW Phoenix,0,Glendale,AZ,85051,Arizona,,33.5381,-112.1182,<li class='dropdown'>  <a href='https://www.empire.edu' target='_blank'>Main web page </a> </li>,www.empire.edu/net-price-calculator,Private for-profit,Certificate degree,Predominantly certificate-degree granting,Not distance-education only,0,7957.0,7914.0,2,Cluster_0
132,106148,107900,1079,Yavapai College,1,Prescott,AZ,86301,Arizona,,34.5475,-112.4542,<li class='dropdown'>  <a href='https://www.YC.EDU' target='_blank'>Main web page </a> </li>,www.yc.edu/webtools/forms/netpricecalc/,Public,Associate degree,Predominantly certificate-degree granting,Not distance-education only,0,2022.0,5673.0,54,Cluster_2
133,106245,110100,1101,University of Arkansas at Little Rock,1,Little Rock,AR,72204,Arkansas,,34.7266,-92.3418,<li class='dropdown'>  <a href='https://www.ualr.edu/www/' target='_blank'>Main web page </a> </li>,npc.collegeboard.org/student/app/ualr,Public,Graduate degree,Predominantly bachelor's-degree granting,Not distance-education only,0,6265.0,7292.0,66,Cluster_3
134,106263,110900,1109,University of Arkansas for Medical Sciences,1,Little Rock,AR,72205-7199,Arkansas,,34.7497,-92.3209,<li class='dropdown'>  <a href='https://www.uams.edu' target='_blank'>Main web page </a> </li>,www.uams.edu,Public,Graduate degree,Predominantly bachelor's-degree granting,Not distance-education only,0,11986.0,60962.0,12,Cluster_3
135,106281,3065100,30651,ABC Beauty College Inc,1,Arkadelphia,AR,71923,Arkansas,,34.1223,-93.0816,<li class='dropdown'>  <a href='https://www.abc-beautycollege.com' target='_blank'>Main web page </a> </li>,www.abc-beautycollege.com,Private for-profit,Certificate degree,Predominantly certificate-degree granting,Not distance-education only,0,5278.0,12167.0,2,Cluster_0
136,106306,108700,1087,Arkansas Baptist College,1,Little Rock,AR,72202-6068,Arkansas,<li class='dropdown'> Religion: Baptist</li>,34.7348,-92.2906,<li class='dropdown'>  <a href='https://www.arkansasbaptist.edu' target='_blank'>Main web page </a> </li>,arkansasbaptist.edu/New_NetPriceCalculator/npcalc.htm,Private nonprofit,Bachelor's degree,Predominantly bachelor's-degree granting,Not distance-education only,1,9112.0,3475.0,16,Cluster_1
137,106315,3005100,30051,Arkansas Beauty School,1,Little Rock,AR,72209,Arkansas,,34.6691,-92.3348,<li class='dropdown'>  <a href='https://www.arkbeautyschool.com' target='_blank'>Main web page </a> </li>,arkbeautyschool.com,Private for-profit,Certificate degree,Predominantly certificate-degree granting,Not distance-education only,0,1665.0,5980.0,2,Cluster_0
138,106324,3997300,39973,Arkansas Beauty College,1,Russellville,AR,72801,Arkansas,,35.2786,-93.1352,<li class='dropdown'>  <a href='https://www.arkansasbeautycollegerussellville.com' target='_blank'>Main web page </a> </li>,arkansasbeautycollegerussellvillear.com/npcalc.htm,Private for-profit,Certificate degree,Predominantly certificate-degree granting,Not distance-education only,0,9392.0,4001.0,2,Cluster_0
139,106342,108800,1088,Lyon College,1,Batesville,AR,72501,Arkansas,<li class='dropdown'> Religion: Presbyterian Church (USA)</li>,35.7789,-91.6281,<li class='dropdown'>  <a href='https://www.lyon.edu' target='_blank'>Main web page </a> </li>,my.lyon.edu/ics/default.aspx,Private nonprofit,Bachelor's degree,Predominantly bachelor's-degree granting,Not distance-education only,0,9863.0,11002.0,14,Cluster_1
140,106351,3023400,30234,Arkansas College of Barbering and Hair Design,1,North Little Rock,AR,72114,Arkansas,,34.7536,-92.2663,<li class='dropdown'>  <a href='https://www.arkansascollegeofbarbering.com' target='_blank'>Main web page </a> </li>,www.arkansascollegeofbarbering.com,Private for-profit,Certificate degree,Predominantly certificate-degree granting,Not distance-education only,0,8447.0,2860.0,2,Cluster_0
141,106360,2363500,23635,Arthur's Beauty College Inc-Fort Smith,1,Fort Smith,AR,72901-3342,Arkansas,,35.38,-94.411,<li class='dropdown'>  <a href='https://www.arthursbeautycollege.com' target='_blank'>Main web page </a> </li>,www.arthursbeautycollege.com,Private for-profit,Certificate degree,Predominantly certificate-degree granting,Not distance-education only,0,8501.0,7849.0,2,Cluster_0
142,106397,110800,1108,University of Arkansas,1,Fayetteville,AR,72701,Arkansas,,36.0615,-94.1782,<li class='dropdown'>  <a href='https://www.uark.edu' target='_blank'>Main web page </a> </li>,finaid.uark.edu/331.php,Public,Graduate degree,Predominantly bachelor's-degree granting,Not distance-education only,0,6624.0,8349.0,27,Cluster_3
143,106412,108600,1086,University of Arkansas at Pine Bluff,1,Pine Bluff,AR,71601,Arkansas,,34.2422,-92.0213,<li class='dropdown'>  <a href='https://www.uapb.edu' target='_blank'>Main web page </a> </li>,www.uapb.edu/index.php?option=com_content&view=article&id=59,Public,Graduate degree,Predominantly bachelor's-degree granting,Not distance-education only,0,2277.0,7154.0,84,Cluster_3
144,106449,109100,1091,Arkansas State University-Beebe,1,Beebe,AR,72012-1000,Arkansas,,35.0745,-91.8962,<li class='dropdown'>  <a href='https://www.asub.edu' target='_blank'>Main web page </a> </li>,www.asub.edu/finaid/npcalc/npcalc.htm,Public,Associate degree,Predominantly certificate-degree granting,Not distance-education only,0,1727.0,4110.0,36,Cluster_2
145,106458,109000,1090,Arkansas State University-Main Campus,1,Jonesboro,AR,72401,Arkansas,,35.8428,-90.6805,<li class='dropdown'>  <a href='https://www2.astate.edu' target='_blank'>Main web page </a> </li>,www.astate.edu/a/finaid/tuition-fees/net-price-calculator/index.dot,Public,Graduate degree,Predominantly bachelor's-degree granting,Not distance-education only,0,3527.0,5002.0,108,Cluster_3
146,106467,108900,1089,Arkansas Tech University,1,Russellville,AR,72801-2222,Arkansas,,35.2952,-93.1323,<li class='dropdown'>  <a href='https://www.atu.edu' target='_blank'>Main web page </a> </li>,www.atu.edu/finaid/npcalc.htm,Public,Graduate degree,Predominantly bachelor's-degree granting,Not distance-education only,0,3247.0,4550.0,112,Cluster_3
147,106485,108500,1085,University of Arkansas at Monticello,1,Monticello,AR,71656,Arkansas,,33.5898,-91.813,<li class='dropdown'>  <a href='https://www.uamont.edu' target='_blank'>Main web page </a> </li>,www.collegeportraits.org/AR/UAM/estimator/agree,Public,Graduate degree,Predominantly certificate-degree granting,Not distance-education only,0,2757.0,6830.0,125,Cluster_3
148,106494,2538500,25385,Arthur's Beauty College Inc-Jacksonville,1,Jacksonville,AR,72076,Arkansas,,34.8918,-92.1023,<li class='dropdown'>  <a href='https://www.arthursbeautycollege.com' target='_blank'>Main web page </a> </li>,www.arthursbeautycollege.com,Private for-profit,Certificate degree,Predominantly certificate-degree granting,Not distance-education only,0,8658.0,8627.0,2,Cluster_0
149,106546,3105200,31052,Baptist Health Schools-Little Rock,1,Little Rock,AR,72210-2820,Arkansas,<li class='dropdown'> Religion: Baptist</li>,34.7131,-92.4069,<li class='dropdown'>  <a href='https://www.bhslr.edu' target='_blank'>Main web page </a> </li>,www.bhslr.edu/student-services/accounts/netprice/npcalc.htm,Private nonprofit,Certificate degree,Predominantly certificate-degree granting,Not distance-education only,0,4199.0,5666.0,2,Cluster_0
150,106625,2052200,20522,Black River Technical College,1,Pocahontas,AR,72455,Arkansas,,36.2398,-90.951,<li class='dropdown'>  <a href='https://www.blackrivertech.edu' target='_blank'>Main web page </a> </li>,finaid.blackrivertech.edu,Public,Associate degree,Predominantly certificate-degree granting,Not distance-education only,0,1275.0,3776.0,27,Cluster_2
151,106704,109200,1092,University of Central Arkansas,1,Conway,AR,72035-0001,Arkansas,,35.0782,-92.4593,<li class='dropdown'>  <a href='https://www.uca.edu' target='_blank'>Main web page </a> </li>,www.uca.edu/financialaid/AidCalculator.php,Public,Graduate degree,Predominantly bachelor's-degree granting,Not distance-education only,0,4425.0,6851.0,96,Cluster_3
152,106713,109300,1093,Central Baptist College,1,Conway,AR,72034,Arkansas,<li class='dropdown'> Religion: Baptist</li>,35.0846,-92.4441,<li class='dropdown'>  <a href='https://www.cbc.edu' target='_blank'>Main web page </a> </li>,www.cbc.edu/students/financial_aid/net_price_calculator.aspx,Private nonprofit,Bachelor's degree,Predominantly bachelor's-degree granting,Not distance-education only,0,8457.0,5075.0,20,Cluster_1
153,106795,2220900,22209,Cossatot Community College of the University of Arkansas,1,De Queen,AR,71832,Arkansas,,34.0434,-94.3673,<li class='dropdown'>  <a href='https://www.cccua.edu/' target='_blank'>Main web page </a> </li>,www.cccua.edu/public/userfiles/files/FinAid/NPC/npcalc.htm,Public,Associate degree,Predominantly certificate-degree granting,Not distance-education only,0,947.0,5770.0,45,Cluster_2
154,106810,109500,1095,Crowley's Ridge College,1,Paragould,AR,72450,Arkansas,<li class='dropdown'> Religion: Churches of Christ</li>,36.0662,-90.5848,<li class='dropdown'>  <a href='https://www.crc.edu/' target='_blank'>Main web page </a> </li>,www.crc.edu/,Private nonprofit,Bachelor's degree,Predominantly associate's-degree granting,Not distance-education only,0,8396.0,3001.0,8,Cluster_1
155,106829,704400,7044,Crowley's Ridge Technical Institute,1,Forrest City,AR,72335-0925,Arkansas,,35.0419,-90.7678,<li class='dropdown'>  <a href='https://www.crti.tec.ar.us' target='_blank'>Main web page </a> </li>,www.crti.tec.ar.us,Public,Certificate degree,Predominantly certificate-degree granting,Not distance-education only,0,448.0,6783.0,18,Cluster_0
156,106883,1226000,12260,East Arkansas Community College,1,Forrest City,AR,72335-2204,Arkansas,,35.0397,-90.7674,<li class='dropdown'>  <a href='https://www.WWW.EACC.EDU' target='_blank'>Main web page </a> </li>,www.eacc.edu/Students/financial_aid/net_price_calc.html,Public,Associate degree,Predominantly certificate-degree granting,Not distance-education only,0,1456.0,5340.0,30,Cluster_2
157,106892,2272400,22724,Eastern College of Health Vocations-Little Rock,1,Little Rock,AR,72205,Arkansas,,34.7511,-92.3412,<li class='dropdown'>  <a href='https://www.easterncollege.edu' target='_blank'>Main web page </a> </li>,www.easterncollege.edu,Private for-profit,Certificate degree,Predominantly certificate-degree granting,Not distance-education only,0,5255.0,1403.0,1,Cluster_0
158,106908,3124900,31249,Imagine-Paul Mitchell Partner School,1,North Little Rock,AR,72117,Arkansas,,34.7913,-92.2213,<li class='dropdown'>  <a href='https://www.pmlittlerock.com' target='_blank'>Main web page </a> </li>,www.pmlittlerock.com,Private for-profit,Certificate degree,Predominantly certificate-degree granting,Not distance-education only,0,10300.0,3636.0,2,Cluster_0
159,106980,1210500,12105,National Park Community College,1,Hot Springs,AR,71913,Arkansas,,34.5127,-93.1171,<li class='dropdown'>  <a href='https://www.npcc.edu' target='_blank'>Main web page </a> </li>,www.npcc.edu/admissions/financialaid/npcalc/npcalc.htm,Public,Associate degree,Predominantly associate's-degree granting,Not distance-education only,0,1641.0,5763.0,42,Cluster_2
160,106999,2073500,20735,University of Arkansas Community College-Batesville,1,Batesville,AR,72503-3350,Arkansas,,35.7929,-91.6161,<li class='dropdown'>  <a href='https://www.uaccb.edu' target='_blank'>Main web page </a> </li>,www.uaccb.edu,Public,Associate degree,Predominantly certificate-degree granting,Not distance-education only,0,1044.0,5691.0,24,Cluster_2
161,107044,109700,1097,Harding University,1,Searcy,AR,72143,Arkansas,<li class='dropdown'> Religion: Churches of Christ</li>,35.2496,-91.729,<li class='dropdown'>  <a href='https://www.harding.edu' target='_blank'>Main web page </a> </li>,www.harding.edu/admissions/npc.html,Private nonprofit,Graduate degree,Predominantly bachelor's-degree granting,Not distance-education only,0,11636.0,9503.0,22,Cluster_1
162,107071,109800,1098,Henderson State University,1,Arkadelphia,AR,71999-0001,Arkansas,,34.1278,-93.0603,<li class='dropdown'>  <a href='https://www.hsu.edu' target='_blank'>Main web page </a> </li>,www.hsu.edu/financial-aid/npcalc.htm,Public,Graduate degree,Predominantly bachelor's-degree granting,Not distance-education only,0,2994.0,6124.0,42,Cluster_3
163,107080,109900,1099,Hendrix College,1,Conway,AR,72032-3080,Arkansas,<li class='dropdown'> Religion: United Methodist</li>,35.0997,-92.442,<li class='dropdown'>  <a href='https://www.hendrix.edu' target='_blank'>Main web page </a> </li>,www.hendrix.edu/Admission/PriceCalculator/,Private nonprofit,Graduate degree,Predominantly bachelor's-degree granting,Not distance-education only,0,12547.0,12018.0,18,Cluster_1
164,107099,3007100,30071,Hot Springs Beauty College,1,Hot Springs,AR,71901,Arkansas,,34.4963,-93.0384,<li class='dropdown'>  <a href='https://www.hotspringsbeautycollege.com' target='_blank'>Main web page </a> </li>,hotspringsbeautycollege.com,Private for-profit,Certificate degree,Predominantly certificate-degree granting,Not distance-education only,0,4823.0,3390.0,2,Cluster_0
165,107123,2330800,23308,Jefferson Regional Medical Center School of Nursing,1,Pine Bluff,AR,71603,Arkansas,,34.1878,-92.018,<li class='dropdown'>  <a href='https://www.jrmc.org' target='_blank'>Main web page </a> </li>,,Private nonprofit,Certificate degree,Predominantly certificate-degree granting,Not distance-education only,1,2888.0,5103.0,1,Cluster_0
166,107141,110000,1100,John Brown University,1,Siloam Springs,AR,72761,Arkansas,,36.1911,-94.5591,<li class='dropdown'>  <a href='https://www.jbu.edu' target='_blank'>Main web page </a> </li>,info.eaglenet.jbu.edu/npc,Private nonprofit,Graduate degree,Predominantly bachelor's-degree granting,Not distance-education only,0,9545.0,7040.0,42,Cluster_1
167,107211,2525800,25258,Lees School of Cosmetology,1,North Little Rock,AR,72114-3800,Arkansas,,34.782,-92.2967,<li class='dropdown'>  <a href='https://www.LSCTraining.com' target='_blank'>Main web page </a> </li>,www.lsctraining.com,Private for-profit,Certificate degree,Predominantly certificate-degree granting,Not distance-education only,0,5165.0,6191.0,2,Cluster_0
168,107220,2341700,23417,Career Academy of Hair Design,1,Springdale,AR,72764-7128,Arkansas,,36.1676,-94.1318,<li class='dropdown'>  <a href='https://www.beautynwa.com' target='_blank'>Main web page </a> </li>,www.beautynwa.com,Private for-profit,Certificate degree,Predominantly certificate-degree granting,Not distance-education only,0,6357.0,1692.0,2,Cluster_0
169,107275,2287400,22874,Marsha Kay Beauty College,1,Mountain Home,AR,72653-3164,Arkansas,,36.3447,-92.386,<li class='dropdown'>  <a href='https://www.marshakaybeautycollege.com' target='_blank'>Main web page </a> </li>,marshakaybeautycollege.com,Private for-profit,Certificate degree,Predominantly certificate-degree granting,Not distance-education only,0,1486.0,3252.0,1,Cluster_0
170,107293,1074100,10741,Academy of Salon and Spa,1,Fort Smith,AR,72901,Arkansas,,35.3809,-94.4163,<li class='dropdown'>  <a href='https://www.academysalonspa.com' target='_blank'>Main web page </a> </li>,www.academysalonspa.com,Private for-profit,Certificate degree,Predominantly certificate-degree granting,Not distance-education only,0,4213.0,2472.0,2,Cluster_0
171,107318,2348200,23482,Mid-South Community College,1,West Memphis,AR,72301-3829,Arkansas,,35.1457,-90.2229,<li class='dropdown'>  <a href='https://www.midsouthcc.edu' target='_blank'>Main web page </a> </li>,www.netpricecalc.com/calc/midsouthcc,Public,Associate degree,Predominantly certificate-degree granting,Not distance-education only,0,1920.0,6971.0,36,Cluster_2
172,107327,1286000,12860,Arkansas Northeastern College,1,Blytheville,AR,72316-1109,Arkansas,,35.8974,-89.9225,<li class='dropdown'>  <a href='https://www.anc.edu' target='_blank'>Main web page </a> </li>,www.anc.edu,Public,Associate degree,Predominantly certificate-degree granting,Not distance-education only,0,1274.0,9522.0,36,Cluster_2
173,107363,3254300,32543,Margaret's Hair Academy Inc,1,Monticello,AR,71655,Arkansas,,33.6292,-91.7887,,www.margaretshairacademy.com,Private for-profit,Certificate degree,Predominantly certificate-degree granting,Not distance-education only,0,6626.0,4510.0,2,Cluster_0
174,107442,2284200,22842,New Tyler Barber College Inc,1,North Little Rock,AR,72114-4973,Arkansas,,34.7591,-92.2541,<li class='dropdown'>  <a href='https://www.newtylerbarbercollege.com' target='_blank'>Main web page </a> </li>,newtylerbarbercollege.com,Private for-profit,Certificate degree,Predominantly certificate-degree granting,Not distance-education only,0,4718.0,1976.0,2,Cluster_0
175,107460,1226100,12261,North Arkansas College,1,Harrison,AR,72601-5508,Arkansas,,36.2205,-93.0873,<li class='dropdown'>  <a href='https://www.northark.edu' target='_blank'>Main web page </a> </li>,www.northark.edu/financialaid/tuition_calculator.aspx,Public,Associate degree,Predominantly certificate-degree granting,Not distance-education only,0,1006.0,5232.0,39,Cluster_2
176,107488,2073700,20737,Northwest Technical Institute,1,Springdale,AR,72764,Arkansas,,36.1786,-94.1164,<li class='dropdown'>  <a href='https://www.nwti.edu' target='_blank'>Main web page </a> </li>,nwti.edu/netprice/npcalc.htm,Public,Certificate degree,Predominantly certificate-degree granting,Not distance-education only,0,3293.0,11450.0,12,Cluster_0
177,107512,110200,1102,Ouachita Baptist University,1,Arkadelphia,AR,71998-0001,Arkansas,<li class='dropdown'> Religion: Southern Baptist</li>,34.125,-93.0524,<li class='dropdown'>  <a href='https://www.obu.edu' target='_blank'>Main web page </a> </li>,www.obu.edu/finaid/,Private nonprofit,Bachelor's degree,Predominantly bachelor's-degree granting,Not distance-education only,0,10088.0,8912.0,18,Cluster_1
178,107521,997600,9976,College of the Ouachitas,1,Malvern,AR,72104-0816,Arkansas,,34.3787,-92.8214,<li class='dropdown'>  <a href='https://www.coto.edu' target='_blank'>Main web page </a> </li>,www.coto.edu/sites/default/static/netpricecalc/npcalc.htm,Public,Associate degree,Predominantly certificate-degree granting,Not distance-education only,0,1320.0,5775.0,42,Cluster_2
179,107549,2087000,20870,Ozarka College,1,Melbourne,AR,72556-0010,Arkansas,,36.053,-91.8964,<li class='dropdown'>  <a href='https://www.ozarka.edu' target='_blank'>Main web page </a> </li>,www.ozarka.edu/finaid/npcalc.cfm,Public,Associate degree,Predominantly certificate-degree granting,Not distance-education only,0,758.0,3336.0,30,Cluster_2
180,107558,109400,1094,University of the Ozarks,1,Clarksville,AR,72830,Arkansas,<li class='dropdown'> Religion: Presbyterian Church (USA)</li>,35.4778,-93.4679,<li class='dropdown'>  <a href='https://www.ozarks.edu' target='_blank'>Main web page </a> </li>,admissions.ozarks.edu/secure/calc/,Private nonprofit,Bachelor's degree,Predominantly bachelor's-degree granting,Not distance-education only,0,11980.0,10651.0,15,Cluster_1
181,107585,524500,5245,University of Arkansas Community College-Morrilton,1,Morrilton,AR,72110,Arkansas,,35.1721,-92.7285,<li class='dropdown'>  <a href='https://www.uaccm.edu' target='_blank'>Main web page </a> </li>,www.uaccm.edu,Public,Associate degree,Predominantly associate's-degree granting,Not distance-education only,0,1708.0,3700.0,33,Cluster_2
182,107600,110300,1103,Philander Smith College,1,Little Rock,AR,72202-3799,Arkansas,<li class='dropdown'> Religion: United Methodist</li>,34.7367,-92.2824,<li class='dropdown'>  <a href='https://www.philander.edu' target='_blank'>Main web page </a> </li>,www.philander.edu/financial-aid/npc.aspx,Private nonprofit,Bachelor's degree,Predominantly bachelor's-degree granting,Not distance-education only,0,7674.0,6217.0,14,Cluster_1
183,107619,110400,1104,Phillips Community College of the University of Arkansas,1,Helena,AR,72342-0785,Arkansas,,34.545,-90.6177,<li class='dropdown'>  <a href='https://www.pccua.edu' target='_blank'>Main web page </a> </li>,www.pccua.edu//IR/npcalc.htm,Public,Associate degree,Predominantly associate's-degree granting,Not distance-education only,0,365.0,7123.0,39,Cluster_2
184,107637,570700,5707,Southeast Arkansas College,1,Pine Bluff,AR,71603,Arkansas,,34.2098,-92.0247,<li class='dropdown'>  <a href='https://www.seark.edu' target='_blank'>Main web page </a> </li>,www.seark.edu/financial-aid/net-price-calculator,Public,Associate degree,Predominantly certificate-degree granting,Not distance-education only,0,2086.0,5034.0,33,Cluster_2
185,107655,2202400,22024,Professional Cosmetology Education Center,1,El Dorado,AR,71730-4009,Arkansas,,33.2151,-92.6631,<li class='dropdown'>  <a href='https://www.professionalcosmetologyeducation.edu' target='_blank'>Main web page </a> </li>,professionalcosmetologyeducation.edu/index.php?option=com_content&view=article&id=75&Itemid=74,Private for-profit,Certificate degree,Predominantly certificate-degree granting,Not distance-education only,0,13022.0,2164.0,2,Cluster_0
186,107664,2075300,20753,Pulaski Technical College,1,North Little Rock,AR,72118-3347,Arkansas,,34.7824,-92.2997,<li class='dropdown'>  <a href='https://www.pulaskitech.edu' target='_blank'>Main web page </a> </li>,www.pulaskitech.edu/administration/net_price_calculator/npcalc.htm,Public,Associate degree,Predominantly associate's-degree granting,Not distance-education only,0,1267.0,3151.0,60,Cluster_2
187,107725,573200,5732,University of Arkansas Community College-Hope,1,Hope,AR,71801,Arkansas,,33.6479,-93.5845,<li class='dropdown'>  <a href='https://www.uacch.edu' target='_blank'>Main web page </a> </li>,www.uacch.edu/netpricecal/npcalc.htm,Public,Associate degree,Predominantly certificate-degree granting,Not distance-education only,0,1094.0,5271.0,36,Cluster_2
188,107743,2111100,21111,Rich Mountain Community College,1,Mena,AR,71953,Arkansas,,34.5908,-94.2197,<li class='dropdown'>  <a href='https://www.rmcc.edu' target='_blank'>Main web page </a> </li>,www.rmcc.edu,Public,Associate degree,Predominantly certificate-degree granting,Not distance-education only,0,1183.0,3672.0,33,Cluster_2
189,107789,792100,7921,Paul Mitchell the School-Arkansas,1,Fayetteville,AR,72703,Arkansas,,36.0787,-94.1565,<li class='dropdown'>  <a href='https://www.pmtsarkansas.com' target='_blank'>Main web page </a> </li>,school.paulmitchell.edu/fayetteville-ar/programs/netprice?progid=1,Private for-profit,Certificate degree,Predominantly certificate-degree granting,Not distance-education only,0,8992.0,2524.0,1,Cluster_0
190,107831,2569600,25696,Searcy Beauty College Inc,1,Searcy,AR,72143,Arkansas,,35.2377,-91.7345,<li class='dropdown'>  <a href='https://www.searcybeautycollege.com/' target='_blank'>Main web page </a> </li>,searcybeautycollege.com,Private for-profit,Certificate degree,Predominantly certificate-degree granting,Not distance-education only,0,2506.0,971.0,2,Cluster_0
191,107840,110500,1105,Shorter College,1,N Little Rock,AR,72114,Arkansas,<li class='dropdown'> Religion: African Methodist Episcopal</li>,,,<li class='dropdown'>  <a href='https://www.shortercollege.org/' target='_blank'>Main web page </a> </li>,www.shortercollege.edu,Private nonprofit,Associate degree,Predominantly associate's-degree granting,Not distance-education only,0,6837.0,4411.0,1,Cluster_2
192,107877,110600,1106,Williams Baptist College,1,Walnut Ridge,AR,72476,Arkansas,<li class='dropdown'> Religion: Southern Baptist</li>,36.1268,-90.9399,<li class='dropdown'>  <a href='https://www.wbcoll.edu' target='_blank'>Main web page </a> </li>,williamsbaptistcollege.com/financial_aid_scholarships/net_price_calculator.aspx,Private nonprofit,Bachelor's degree,Predominantly bachelor's-degree granting,Not distance-education only,0,7323.0,5339.0,20,Cluster_1
193,107974,2074600,20746,South Arkansas Community College,1,El Dorado,AR,71731-7010,Arkansas,,33.2094,-92.6661,<li class='dropdown'>  <a href='https://www.southark.edu' target='_blank'>Main web page </a> </li>,www.southark.edu/netpricecalculator/,Public,Associate degree,Predominantly certificate-degree granting,Not distance-education only,0,1405.0,6429.0,33,Cluster_2
194,107983,110700,1107,Southern Arkansas University Main Campus,1,Magnolia,AR,71753,Arkansas,,33.2912,-93.2351,<li class='dropdown'>  <a href='https://www.WWW.SAUMAG.EDU' target='_blank'>Main web page </a> </li>,www.saumag.edu/netprice/,Public,Graduate degree,Predominantly bachelor's-degree granting,Not distance-education only,0,3465.0,6317.0,80,Cluster_3
195,107992,773800,7738,Southern Arkansas University Tech,1,Camden,AR,71701-1906,Arkansas,,33.6039,-92.839,<li class='dropdown'>  <a href='https://www.sautech.edu' target='_blank'>Main web page </a> </li>,www.sautech.edu/tuit_calc.aspx,Public,Associate degree,Predominantly certificate-degree granting,Not distance-education only,0,2125.0,6394.0,48,Cluster_2
196,108065,3214300,32143,Velvatex College of Beauty Culture,1,Little Rock,AR,72202-5452,Arkansas,,34.7357,-92.2898,<li class='dropdown'>  <a href='https://www.velvatexcollege.com' target='_blank'>Main web page </a> </li>,www.velvatexcollege.com,Private for-profit,Certificate degree,Predominantly certificate-degree granting,Not distance-education only,0,342.0,1500.0,1,Cluster_0
197,108092,111000,1110,University of Arkansas-Fort Smith,1,Fort Smith,AR,72913-3649,Arkansas,,35.3853,-94.3741,<li class='dropdown'>  <a href='https://www.uafs.edu/' target='_blank'>Main web page </a> </li>,uafscalculator.com/,Public,Bachelor's degree,Predominantly bachelor's-degree granting,Not distance-education only,0,2204.0,5165.0,84,Cluster_3
198,108232,753100,7531,Academy of Art University,1,San Francisco,CA,94105,California,,37.7877,-122.4007,<li class='dropdown'>  <a href='https://www.academyart.edu' target='_blank'>Main web page </a> </li>,npc.collegeboard.org/student/app/academyart,Private for-profit,Graduate degree,Predominantly bachelor's-degree granting,Not distance-education only,0,23290.0,7291.0,14,Cluster_1
199,108250,732971,7329,ITT Technical Institute-Rancho Cordova,0,Rancho Cordova,CA,95670-6034,California,,38.5917,-121.2815,<li class='dropdown'>  <a href='https://www.itt-tech.edu' target='_blank'>Main web page </a> </li>,www.itt-tech.edu/npc,Private for-profit,Bachelor's degree,Predominantly associate's-degree granting,Not distance-education only,0,19887.0,4266.0,16,Cluster_2
200,108269,3288300,32883,Academy of Chinese Culture and Health Sciences,1,Oakland,CA,94612,California,,37.8067,-122.2727,<li class='dropdown'>  <a href='https://www.acchs.edu' target='_blank'>Main web page </a> </li>,www.acchs.edu,Private nonprofit,Graduate degree,Entirely graduate-degree granting,Not distance-education only,0,9571.0,4965.0,0,Cluster_1
201,108348,2342400,23424,The Academy of Radio and TV Broadcasting,1,Huntington Beach,CA,92647,California,,33.7289,-117.9877,<li class='dropdown'>  <a href='https://www.WWW.ARBRADIO.COM' target='_blank'>Main web page </a> </li>,www.arbradio.com/NetPriceCalculator/npcalc.htm,Private for-profit,Certificate degree,Predominantly certificate-degree granting,Not distance-education only,0,14743.0,1972.0,2,Cluster_0
202,108649,2258600,22586,Avalon School of Cosmetology-Alameda,1,Alameda,CA,94501,California,,37.7642,-122.2436,<li class='dropdown'>  <a href='https://www.avalon.edu' target='_blank'>Main web page </a> </li>,avalon.edu/consumer-information/,Private for-profit,Certificate degree,Predominantly certificate-degree granting,Not distance-education only,0,1205.0,2538.0,2,Cluster_0
203,108667,672000,6720,College of Alameda,1,Alameda,CA,94501,California,,37.7824,-122.2793,<li class='dropdown'>  <a href='https://www.peralta.edu' target='_blank'>Main web page </a> </li>,webprod.cccco.edu/npc/341/npcalc.htm,Public,Associate degree,Predominantly associate's-degree granting,Not distance-education only,0,1049.0,3724.0,57,Cluster_2
204,108807,111100,1111,Allan Hancock College,1,Santa Maria,CA,93454-6399,California,,34.943,-120.4215,<li class='dropdown'>  <a href='https://www.hancockcollege.edu/' target='_blank'>Main web page </a> </li>,webprod.cccco.edu/npc/611/npcalc.htm,Public,Associate degree,Predominantly associate's-degree granting,Not distance-education only,0,710.0,4164.0,108,Cluster_2
205,108852,746501,7465,American Academy of Dramatic Arts-Los Angeles,0,Los Angeles,CA,90028,California,,34.0953,-118.3441,<li class='dropdown'>  <a href='https://www.WWW.AADA.EDU' target='_blank'>Main web page </a> </li>,www.aada.edu/admissions/costs.html,Private nonprofit,Associate degree,Predominantly associate's-degree granting,Not distance-education only,0,23029.0,5835.0,2,Cluster_2
206,108861,112000,1120,American Baptist Seminary of the West,1,Berkeley,CA,94704-3029,California,<li class='dropdown'> Religion: American Baptist</li>,37.8653,-122.2561,<li class='dropdown'>  <a href='https://www.absw.edu' target='_blank'>Main web page </a> </li>,,Private nonprofit,Graduate degree,Entirely graduate-degree granting,Not distance-education only,0,12653.0,17738.0,0,Cluster_1
207,108870,2222000,22220,American Film Institute Conservatory,1,Los Angeles,CA,90027-1625,California,,34.1085,-118.31,<li class='dropdown'>  <a href='https://www.AFI.com' target='_blank'>Main web page </a> </li>,www.afi.com/conservatory/admissions/fa_cost.aspx,Private nonprofit,Graduate degree,Entirely graduate-degree granting,Not distance-education only,0,26351.0,6739.0,0,Cluster_1
208,108977,1307400,13074,American Beauty College,1,West Covina,CA,91790,California,,33.8844,-118.125,<li class='dropdown'>  <a href='https://www.american-beauty-college.com' target='_blank'>Main web page </a> </li>,www.american-beauty-college.com,Private for-profit,Certificate degree,Predominantly certificate-degree granting,Not distance-education only,1,5490.0,2668.0,2,Cluster_0
209,109040,2241800,22418,American Career College-Los Angeles,1,Los Angeles,CA,90004,California,,34.0792,-118.2923,<li class='dropdown'>  <a href='https://www.americancareercollege.edu/' target='_blank'>Main web page </a> </li>,americancareercollege.edu/getting-started/financial-aid.html,Private for-profit,Associate degree,Predominantly certificate-degree granting,Not distance-education only,0,21889.0,6902.0,3,Cluster_2
210,109086,2099200,20992,American Conservatory Theater,1,San Francisco,CA,94108-5834,California,,37.7873,-122.4049,<li class='dropdown'>  <a href='https://www.act-sf.org' target='_blank'>Main web page </a> </li>,www.actaccess.org/netpricecalculator/npcalc.htm,Private nonprofit,Graduate degree,Predominantly certificate-degree granting,Not distance-education only,0,31619.0,21970.0,2,Cluster_1
211,109208,123200,1232,American River College,1,Sacramento,CA,95841-4286,California,,38.6497,-121.346,<li class='dropdown'>  <a href='https://www.arc.losrios.edu/' target='_blank'>Main web page </a> </li>,www.losrios.edu/lrc/npcalc.php?c=arc,Public,Associate degree,Predominantly certificate-degree granting,Not distance-education only,0,451.0,3493.0,112,Cluster_2
212,109332,1112100,11121,Everest College-Hayward,1,Hayward,CA,94541,California,,37.6754,-122.0848,<li class='dropdown'>  <a href='https://www.bryman.edu' target='_blank'>Main web page </a> </li>,www.Everest.edu/npc,Private for-profit,Certificate degree,Predominantly certificate-degree granting,Not distance-education only,0,13508.0,1765.0,1,Cluster_0
213,109350,111300,1113,Antelope Valley College,1,Lancaster,CA,93536-5426,California,,34.6762,-118.1862,<li class='dropdown'>  <a href='https://www.avc.edu' target='_blank'>Main web page </a> </li>,webprod.cccco.edu/npc/621/npcalc.htm,Public,Associate degree,Predominantly associate's-degree granting,Not distance-education only,0,334.0,3440.0,69,Cluster_2
214,109651,111600,1116,Art Center College of Design,1,Pasadena,CA,91103,California,,34.1708,-118.1869,<li class='dropdown'>  <a href='https://www.artcenter.edu' target='_blank'>Main web page </a> </li>,www.artcenter.edu/accd/admissions/financial_aid/net_price_calculator.jsp,Private nonprofit,Graduate degree,Predominantly bachelor's-degree granting,Not distance-education only,0,29955.0,17117.0,5,Cluster_1
215,109721,902200,9022,Associated Technical College-Los Angeles,1,Los Angeles,CA,90017-1604,California,,34.056,-118.2724,<li class='dropdown'>  <a href='https://www.atcla.edu' target='_blank'>Main web page </a> </li>,atcla.edu/NetPriceCalculator/npcalc.htm,Private for-profit,Certificate degree,Predominantly certificate-degree granting,Not distance-education only,0,16678.0,4480.0,2,Cluster_0
216,109730,2553500,25535,Associated Technical College-San Diego,1,San Diego,CA,92101,California,,32.7157,-117.1582,<li class='dropdown'>  <a href='https://www.associatedtechcollege.com' target='_blank'>Main web page </a> </li>,www.associatedtechcollege.com,Private for-profit,Certificate degree,Predominantly certificate-degree granting,Not distance-education only,0,7468.0,3066.0,2,Cluster_0
217,109785,111700,1117,Azusa Pacific University,1,Azusa,CA,91702-7000,California,<li class='dropdown'> Religion: Undenominational</li>,34.1309,-117.888,<li class='dropdown'>  <a href='https://www.apu.edu' target='_blank'>Main web page </a> </li>,www.apu.edu/sfs/undergraduate/cost/calculator/,Private nonprofit,Graduate degree,Predominantly bachelor's-degree granting,Not distance-education only,0,18430.0,10343.0,38,Cluster_1
218,109819,111800,1118,Bakersfield College,1,Bakersfield,CA,93305-1299,California,,35.4108,-118.9735,<li class='dropdown'>  <a href='https://www.bakersfieldcollege.edu/' target='_blank'>Main web page </a> </li>,webprod.cccco.edu/npc/521/npcalc.htm,Public,Associate degree,Predominantly certificate-degree granting,Not distance-education only,0,482.0,4641.0,90,Cluster_2
219,109907,111900,1119,Barstow Community College,1,Barstow,CA,92311,California,,34.8715,-117.0252,<li class='dropdown'>  <a href='https://www.barstow.edu' target='_blank'>Main web page </a> </li>,webprod.cccco.edu/npc/911/npcalc.htm,Public,Associate degree,Predominantly associate's-degree granting,Not distance-education only,0,326.0,4968.0,26,Cluster_2
220,109934,705000,7050,Bellus Academy-National City,1,National City,CA,91950,California,,32.6768,-117.0902,<li class='dropdown'>  <a href='https://www.bellusacademy.edu' target='_blank'>Main web page </a> </li>,www.bellusacademy.edu,Private for-profit,Certificate degree,Predominantly certificate-degree granting,Not distance-education only,0,11350.0,3735.0,3,Cluster_0
221,110060,3266300,32663,Bethesda University of California,1,Anaheim,CA,92801,California,<li class='dropdown'> Religion: Other (none of the above)</li>,33.8423,-117.9413,<li class='dropdown'>  <a href='https://www.buc.edu' target='_blank'>Main web page </a> </li>,www.buc.edu,Private nonprofit,Graduate degree,Predominantly bachelor's-degree granting,Not distance-education only,0,5936.0,3934.0,10,Cluster_1
222,110097,112200,1122,Biola University,1,La Mirada,CA,90639-0001,California,<li class='dropdown'> Religion: Undenominational</li>,33.9048,-118.0173,<li class='dropdown'>  <a href='https://www.biola.edu' target='_blank'>Main web page </a> </li>,undergrad.biola.edu/finaid/#net-price,Private nonprofit,Graduate degree,Predominantly bachelor's-degree granting,Not distance-education only,0,20770.0,10435.0,21,Cluster_1
223,110185,112300,1123,Brooks Institute,1,Santa Barbara,CA,93101,California,,34.4186,-119.696,<li class='dropdown'>  <a href='https://www.brooks.edu' target='_blank'>Main web page </a> </li>,brooks.studentaidcalculator.com,Private for-profit,Graduate degree,Predominantly bachelor's-degree granting,Not distance-education only,0,22284.0,5296.0,4,Cluster_1
224,110194,2543400,25434,Brownson Technical School,1,Anaheim,CA,92805,California,,33.819,-117.9064,<li class='dropdown'>  <a href='https://www.brownson.edu' target='_blank'>Main web page </a> </li>,www.brownson.edu,Private for-profit,Certificate degree,Predominantly certificate-degree granting,Not distance-education only,0,10468.0,6464.0,2,Cluster_0
225,110219,716400,7164,Bryan University,1,Los Angeles,CA,90010,California,,34.0614,-118.3029,<li class='dropdown'>  <a href='https://www.bryancollege.edu' target='_blank'>Main web page </a> </li>,www.bryanuniversity.edu/w_tuition_financial_aid.aspx?,Private for-profit,Graduate degree,Predominantly associate's-degree granting,Not distance-education only,0,11179.0,3389.0,4,Cluster_2
226,110246,807300,8073,Butte College,1,Oroville,CA,95965-8399,California,,39.6491,-121.6447,<li class='dropdown'>  <a href='https://www.butte.edu' target='_blank'>Main web page </a> </li>,webprod.cccco.edu/npc/111/npcalc.htm,Public,Associate degree,Predominantly certificate-degree granting,Not distance-education only,0,842.0,4255.0,104,Cluster_2
227,110307,2237200,22372,Phillips Graduate Institute,1,Chatsworth,CA,91311,California,,34.2427,-118.5677,<li class='dropdown'>  <a href='https://www.pgi.edu' target='_blank'>Main web page </a> </li>,,Private nonprofit,Graduate degree,Entirely graduate-degree granting,Not distance-education only,0,20047.0,7873.0,0,Cluster_1
228,110316,1215400,12154,California Institute of Integral Studies,1,San Francisco,CA,94103,California,,37.7748,-122.4165,<li class='dropdown'>  <a href='https://www.ciis.edu' target='_blank'>Main web page </a> </li>,npc.collegeboard.org/student/app/ciis,Private nonprofit,Graduate degree,Predominantly bachelor's-degree granting,Not distance-education only,0,17177.0,11135.0,9,Cluster_1
229,110334,112400,1124,Cabrillo College,1,Aptos,CA,95003,California,,36.9891,-121.9279,<li class='dropdown'>  <a href='https://www.cabrillo.edu' target='_blank'>Main web page </a> </li>,webprod.cccco.edu/npc/411/npcalc.htm,Public,Associate degree,Predominantly associate's-degree granting,Not distance-education only,0,996.0,6238.0,81,Cluster_2
230,110361,112500,1125,California Baptist University,1,Riverside,CA,92504-3297,California,<li class='dropdown'> Religion: Southern Baptist</li>,33.9286,-117.4259,<li class='dropdown'>  <a href='https://www.calbaptist.edu' target='_blank'>Main web page </a> </li>,calbaptist.studentaidcalculator.com/welcome.aspx,Private nonprofit,Graduate degree,Predominantly bachelor's-degree granting,Not distance-education only,0,18014.0,8008.0,28,Cluster_1
231,110370,112700,1127,California College of the Arts,1,San Francisco,CA,94107-2247,California,,37.8357,-122.2514,<li class='dropdown'>  <a href='https://www.cca.edu' target='_blank'>Main web page </a> </li>,www.cca.edu/admissions/financialaid/calculator,Private nonprofit,Graduate degree,Predominantly bachelor's-degree granting,Not distance-education only,0,28276.0,16026.0,6,Cluster_1
232,110398,394700,3947,University of California-Hastings College of Law,1,San Francisco,CA,94102-4978,California,,37.7807,-122.4154,<li class='dropdown'>  <a href='https://www.uchastings.edu' target='_blank'>Main web page </a> </li>,,Public,Graduate degree,Entirely graduate-degree granting,Not distance-education only,0,29404.0,22078.0,0,Cluster_3
233,110404,113100,1131,California Institute of Technology,1,Pasadena,CA,91125,California,,34.1393,-118.1257,<li class='dropdown'>  <a href='https://www.caltech.edu' target='_blank'>Main web page </a> </li>,www.finaid.caltech.edu/,Private nonprofit,Graduate degree,Predominantly bachelor's-degree granting,Not distance-education only,0,15679.0,92854.0,11,Cluster_1
234,110413,113300,1133,California Lutheran University,1,Thousand Oaks,CA,91360-2787,California,<li class='dropdown'> Religion: Evangelical Lutheran Church</li>,34.2256,-118.8795,<li class='dropdown'>  <a href='https://www.callutheran.edu/' target='_blank'>Main web page </a> </li>,www.callutheran.edu/financial_aid/getting_started/calculator.php,Private nonprofit,Graduate degree,Predominantly bachelor's-degree granting,Not distance-education only,0,17980.0,8149.0,22,Cluster_1
235,110422,114300,1143,California Polytechnic State University-San Luis Obispo,1,San Luis Obispo,CA,93407,California,,35.2989,-120.6586,<li class='dropdown'>  <a href='https://www.calpoly.edu' target='_blank'>Main web page </a> </li>,www.csumentor.edu/finaid/pais/,Public,Graduate degree,Predominantly bachelor's-degree granting,Not distance-education only,0,7908.0,9907.0,26,Cluster_3
236,110468,1111700,11117,Alliant International University,1,San Diego,CA,92131-1799,California,,32.8971,-117.0944,<li class='dropdown'>  <a href='https://www.alliant.edu' target='_blank'>Main web page </a> </li>,www.alliant.edu/_resources/net-price-cal/npcalc.htm,Private nonprofit,Graduate degree,Predominantly bachelor's-degree granting,Not distance-education only,0,20681.0,9501.0,8,Cluster_1
237,110486,799300,7993,California State University-Bakersfield,1,Bakersfield,CA,93311-1099,California,,35.35,-119.1047,<li class='dropdown'>  <a href='https://www.csub.edu' target='_blank'>Main web page </a> </li>,www.csumentor.edu/finaid/pais/,Public,Graduate degree,Predominantly bachelor's-degree granting,Not distance-education only,0,3182.0,6087.0,22,Cluster_3
238,110495,115700,1157,California State University-Stanislaus,1,Turlock,CA,95382-0299,California,,37.5258,-120.8525,<li class='dropdown'>  <a href='https://www.csustan.edu' target='_blank'>Main web page </a> </li>,www.csumentor.edu/FinAid/PAIS/,Public,Graduate degree,Predominantly bachelor's-degree granting,Not distance-education only,0,4704.0,8274.0,23,Cluster_3
239,110510,114200,1142,California State University-San Bernardino,1,San Bernardino,CA,92407-2397,California,,34.183,-117.3225,<li class='dropdown'>  <a href='https://www.csusb.edu' target='_blank'>Main web page </a> </li>,www.csumentor.edu/FinAid/pais/,Public,Graduate degree,Predominantly bachelor's-degree granting,Not distance-education only,0,5417.0,6585.0,24,Cluster_3
240,110529,114400,1144,California State Polytechnic University-Pomona,1,Pomona,CA,91768,California,,34.0543,-117.819,<li class='dropdown'>  <a href='https://www.csupomona.edu' target='_blank'>Main web page </a> </li>,www.csumentor.edu/finaid/pais/,Public,Graduate degree,Predominantly bachelor's-degree granting,Not distance-education only,0,4577.0,7355.0,26,Cluster_3
241,110538,114600,1146,California State University-Chico,1,Chico,CA,95929-0150,California,,39.728,-121.8463,<li class='dropdown'>  <a href='https://www.csuchico.edu' target='_blank'>Main web page </a> </li>,www.csuchico.edu/fa/awardInfo/cost.shtml,Public,Graduate degree,Predominantly bachelor's-degree granting,Not distance-education only,0,5091.0,6800.0,26,Cluster_3
242,110547,114100,1141,California State University-Dominguez Hills,1,Carson,CA,90747-0005,California,,33.8652,-118.2593,<li class='dropdown'>  <a href='https://www.csudh.edu' target='_blank'>Main web page </a> </li>,www.csumentor.edu/finaid/pais/,Public,Graduate degree,Predominantly bachelor's-degree granting,Not distance-education only,0,5563.0,6807.0,23,Cluster_3
243,110556,114700,1147,California State University-Fresno,1,Fresno,CA,93740,California,,36.8145,-119.7483,<li class='dropdown'>  <a href='https://www.csufresno.edu' target='_blank'>Main web page </a> </li>,www.collegeportraits.org/CA/CSUFRESNO/costs,Public,Graduate degree,Predominantly bachelor's-degree granting,Not distance-education only,0,3990.0,6446.0,25,Cluster_3
244,110565,113700,1137,California State University-Fullerton,1,Fullerton,CA,92831-3599,California,,33.8836,-117.8853,<li class='dropdown'>  <a href='https://www.fullerton.edu' target='_blank'>Main web page </a> </li>,www.csumentor.edu/finaid/pais/,Public,Graduate degree,Predominantly bachelor's-degree granting,Not distance-education only,0,6147.0,7685.0,23,Cluster_3
245,110574,113800,1138,California State University-East Bay,1,Hayward,CA,94542,California,,37.6571,-122.0581,<li class='dropdown'>  <a href='https://www.csueastbay.edu' target='_blank'>Main web page </a> </li>,www20.csueastbay.edu/prospective/cost-and-financial-aid/cost-of-attendance/,Public,Graduate degree,Predominantly bachelor's-degree granting,Not distance-education only,0,6821.0,6978.0,25,Cluster_3
246,110583,113900,1139,California State University-Long Beach,1,Long Beach,CA,90840-0115,California,,33.7828,-118.1123,<li class='dropdown'>  <a href='https://www.csulb.edu' target='_blank'>Main web page </a> </li>,www.csumentor.edu/finaid/pais/,Public,Graduate degree,Predominantly bachelor's-degree granting,Not distance-education only,0,5322.0,7422.0,25,Cluster_3
247,110592,114000,1140,California State University-Los Angeles,1,Los Angeles,CA,90032,California,,34.0669,-118.169,<li class='dropdown'>  <a href='https://www.calstatela.edu' target='_blank'>Main web page </a> </li>,www.csumentor.edu/finaid/pais/,Public,Graduate degree,Predominantly bachelor's-degree granting,Not distance-education only,0,4287.0,6569.0,25,Cluster_3
248,110608,115300,1153,California State University-Northridge,1,Northridge,CA,91330,California,,34.2367,-118.5268,<li class='dropdown'>  <a href='https://www.csun.edu' target='_blank'>Main web page </a> </li>,www.csumentor.edu/finaid/pais/,Public,Graduate degree,Predominantly bachelor's-degree granting,Not distance-education only,0,5994.0,6952.0,23,Cluster_3
249,110617,115000,1150,California State University-Sacramento,1,Sacramento,CA,95819-2694,California,,38.5575,-121.4219,<li class='dropdown'>  <a href='https://www.csus.edu' target='_blank'>Main web page </a> </li>,www.csumentor.edu/finaid/pais/,Public,Graduate degree,Predominantly bachelor's-degree granting,Not distance-education only,0,5274.0,7281.0,25,Cluster_3
250,110635,131200,1312,University of California-Berkeley,1,Berkeley,CA,94720,California,,37.8715,-122.2604,<li class='dropdown'>  <a href='https://www.berkeley.edu' target='_blank'>Main web page </a> </li>,calculator.berkeley.edu/,Public,Graduate degree,Predominantly bachelor's-degree granting,Not distance-education only,0,16733.0,18072.0,23,Cluster_3
251,110644,131300,1313,University of California-Davis,1,Davis,CA,95616-8678,California,,38.5399,-121.752,<li class='dropdown'>  <a href='https://www.ucdavis.edu' target='_blank'>Main web page </a> </li>,financialaid.ucdavis.edu/aidEstimator/ucdcalcmain.aspx,Public,Graduate degree,Predominantly bachelor's-degree granting,Not distance-education only,0,13500.0,21365.0,24,Cluster_3
252,110653,131400,1314,University of California-Irvine,1,Irvine,CA,92697,California,,33.667,-117.7686,<li class='dropdown'>  <a href='https://www.uci.edu/' target='_blank'>Main web page </a> </li>,www.ofas.uci.edu/content/Calculator.aspx,Public,Graduate degree,Predominantly bachelor's-degree granting,Not distance-education only,0,13713.0,17853.0,23,Cluster_3
253,110662,131500,1315,University of California-Los Angeles,1,Los Angeles,CA,90095-1405,California,,34.0689,-118.4439,<li class='dropdown'>  <a href='https://www.ucla.edu/' target='_blank'>Main web page </a> </li>,www.fao.ucla.edu/aid_estimator/,Public,Graduate degree,Predominantly bachelor's-degree granting,Not distance-education only,0,15123.0,38489.0,23,Cluster_3
254,110671,131600,1316,University of California-Riverside,1,Riverside,CA,92521,California,,33.9759,-117.3311,<li class='dropdown'>  <a href='https://www.WWW.UCR.EDU' target='_blank'>Main web page </a> </li>,www.finaidestimator.ucr.edu/,Public,Graduate degree,Predominantly bachelor's-degree granting,Not distance-education only,0,11937.0,10473.0,20,Cluster_3
255,110680,131700,1317,University of California-San Diego,1,La Jolla,CA,92093,California,,32.8766,-117.2378,<li class='dropdown'>  <a href='https://www.ucsd.edu' target='_blank'>Main web page </a> </li>,students.ucsd.edu/finances/financial-aid/forms/calculator.html,Public,Graduate degree,Predominantly bachelor's-degree granting,Not distance-education only,0,13805.0,22757.0,21,Cluster_3
256,110699,131900,1319,University of California-San Francisco,1,San Francisco,CA,94143-0244,California,,37.7627,-122.458,<li class='dropdown'>  <a href='https://www.ucsf.edu' target='_blank'>Main web page </a> </li>,,Public,Graduate degree,Entirely graduate-degree granting,Not distance-education only,0,18422.0,100690.0,0,Cluster_3
257,110705,132000,1320,University of California-Santa Barbara,1,Santa Barbara,CA,93106,California,,34.4155,-119.8481,<li class='dropdown'>  <a href='https://www.ucsb.edu' target='_blank'>Main web page </a> </li>,www.finaid.ucsb.edu/Prospective/AidEstimator.aspx,Public,Graduate degree,Predominantly bachelor's-degree granting,Not distance-education only,0,13553.0,10571.0,20,Cluster_3
258,110714,132100,1321,University of California-Santa Cruz,1,Santa Cruz,CA,95064-1011,California,,36.9973,-122.068,<li class='dropdown'>  <a href='https://www.ucsc.edu/' target='_blank'>Main web page </a> </li>,www2.ucsc.edu/finaidcalc/calculator/index.php,Public,Graduate degree,Predominantly bachelor's-degree granting,Not distance-education only,0,11066.0,8338.0,21,Cluster_3
259,110778,2267600,22676,Sofia University,1,Palo Alto,CA,94303,California,,37.4303,-122.1087,<li class='dropdown'>  <a href='https://www.sofia.edu' target='_blank'>Main web page </a> </li>,www.sofia.edu/admissions/loancalculator.php,Private nonprofit,Graduate degree,Entirely graduate-degree granting,Not distance-education only,0,24037.0,13400.0,0,Cluster_1
260,110875,2065700,20657,California Beauty School,1,Modesto,CA,95354,California,,37.6452,-120.9969,<li class='dropdown'>  <a href='https://www.calbeautycollege.com' target='_blank'>Main web page </a> </li>,www.calbeautycollege.com,Private for-profit,Certificate degree,Predominantly certificate-degree granting,Not distance-education only,0,5367.0,1052.0,2,Cluster_0
261,110918,884400,8844,California Christian College,1,Fresno,CA,93703-3599,California,<li class='dropdown'> Religion: Free Will Baptist Church</li>,36.7676,-119.7328,<li class='dropdown'>  <a href='https://www.calchristiancollege.edu' target='_blank'>Main web page </a> </li>,www.calchristiancollege.edu/financial-aid/calculator,Private nonprofit,Bachelor's degree,Predominantly bachelor's-degree granting,Not distance-education only,0,12357.0,3031.0,2,Cluster_1
262,110945,2110800,21108,California College San Diego,1,San Diego,CA,92111-1009,California,,32.7702,-117.1338,<li class='dropdown'>  <a href='https://www.cc-sd.edu' target='_blank'>Main web page </a> </li>,cc-sd.studentaidcalculator.com/survey.aspx,Private nonprofit,Bachelor's degree,Predominantly associate's-degree granting,Not distance-education only,0,16010.0,3504.0,6,Cluster_1
